{
	"result": {
		"version": 201408030830,
		"formatversion": "1.0.0",
		"stores": [{
			"id": 101,
			"name": "GLOBUS Zürich Bahnhofstrasse",
			"channelName": "Magazine zum Globus AG",
			"address": "Schweizergasse 11",
			"zip": 8021,
			"city": "Zürich",
			"phone": "+41 58 578 11 11",
			"fax": "+41 58 578 11 88",
			"longitude": 8.537986,
			"latitude": 47.375868,
			"email": "daniel.kunz@globus.ch",
			"manager": {
				"de": "Herr Daniel Kunz",
				"fr": "Monsieur Daniel Kunz",
				"en": "Mr. Daniel Kunz"
			},
			"images": [{
				"type": "Thumbnail",
				"url": "http://www.globus.ch//locations/zuerich-bahnhofstrasse//small/small.jpg"
			},
			{
				"type": "Detail",
				"url": "http://www.globus.ch//locations/zuerich-bahnhofstrasse//large/large.jpg"
			}],
			"shopClosed": null,
			"openingTimes": [{
				"days": [{
					"weekday": 1,
					"hours": "09:00 - 20:00"
				},
				{
					"weekday": 2,
					"hours": "09:00 - 20:00"
				},
				{
					"weekday": 3,
					"hours": "09:00 - 20:00"
				},
				{
					"weekday": 4,
					"hours": "09:00 - 20:00"
				},
				{
					"weekday": 5,
					"hours": "09:00 - 20:00"
				},
				{
					"weekday": 6,
					"hours": "09:00 - 20:00"
				},
				{
					"weekday": 7,
					"hours": "00:00 - 00:00"
				}]
			}],
			"holidays": [{
				"title": {
					"de": "Filiale",
					"fr": "Succursale",
					"en": "Shop"
				},
				"days": [{
					"day": {
						"de": "Gründonnerstag",
						"fr": "Jeudi saint",
						"en": "Holy Thursday"
					},
					"date": "2014-04-17",
					"hours": "09:00 - 18:00"
				},
				{
					"day": {
						"de": "Karfreitag",
						"fr": "Vendredi saint",
						"en": "Good Friday"
					},
					"date": "2014-04-18",
					"hours": "00:00 - 00:00"
				},
				{
					"day": {
						"de": "Ostersamstag",
						"fr": "Samedi de Pâques",
						"en": "Day before Easter"
					},
					"date": "2014-04-19",
					"hours": "09:00 - 18:00"
				},
				{
					"day": {
						"de": "Ostermontag",
						"fr": "Lundi de Pâques",
						"en": "Easter Monday"
					},
					"date": "2014-04-21",
					"hours": "00:00 - 00:00"
				},
				{
					"day": {
						"de": "Sechseläuten",
						"fr": "«Sechseläuten»",
						"en": "«Sechseläuten»"
					},
					"date": "2014-04-28",
					"hours": "00:00 - 00:00"
				},
				{
					"day": {
						"de": "Tag der Arbeit",
						"fr": "Fête du travail",
						"en": "Labour Day"
					},
					"date": "2014-05-01",
					"hours": "00:00 - 00:00"
				},
				{
					"day": {
						"de": "Vortag Auffahrt",
						"fr": "Jour avant Ascension",
						"en": "Day before Ascension Day"
					},
					"date": "2014-05-28",
					"hours": "09:00 - 18:00"
				},
				{
					"day": {
						"de": "Auffahrt",
						"fr": "Ascension",
						"en": "Ascension Day"
					},
					"date": "2014-05-29",
					"hours": "00:00 - 00:00"
				},
				{
					"day": {
						"de": "Vortag Pfingsten",
						"fr": "Jour avant Pentecôt",
						"en": "Day before Pentecost"
					},
					"date": "2014-06-07",
					"hours": "09:00 - 18:00"
				},
				{
					"day": {
						"de": "Pfingstmontag",
						"fr": "Lundi de Pentecôt",
						"en": "Whit Monday"
					},
					"date": "2014-06-09",
					"hours": "00:00 - 00:00"
				},
				{
					"day": {
						"de": "Nationalfeiertag",
						"fr": "Fête nationale",
						"en": "National Holiday"
					},
					"date": "2014-08-01",
					"hours": "00:00 - 00:00"
				},
				{
					"day": {
						"de": "Streetparade",
						"fr": "Streetparade",
						"en": "Streetparade"
					},
					"date": "2014-08-02",
					"hours": "9:00 - 16:00"
				},
				{
					"day": {
						"de": "Erster Advent",
						"fr": "Premier Avent",
						"en": "First Advent"
					},
					"date": "2014-11-30",
					"hours": "10:00 - 18:00"
				},
				{
					"day": {
						"de": "Zweiter Advent",
						"fr": "Deuxième Avent",
						"en": "Second Advent"
					},
					"date": "2014-12-07",
					"hours": "11:00 - 18:00"
				},
				{
					"day": {
						"de": "Maria Empfängnis",
						"fr": "Immaculée Conception",
						"en": "Immaculate Conception"
					},
					"date": "2014-12-08",
					"hours": "09:00 - 20:00"
				},
				{
					"day": {
						"de": "Dritter Advent",
						"fr": "Troisième Avent",
						"en": "Third Advent"
					},
					"date": "2014-12-14",
					"hours": "00:00 - 00:00"
				},
				{
					"day": {
						"de": "Vierter Advent",
						"fr": "Quatrième Avent",
						"en": "Fourth Advent"
					},
					"date": "2014-12-21",
					"hours": "10:00 - 18:00"
				},
				{
					"day": {
						"de": "Heiliger Abend",
						"fr": "Veille de Noël",
						"en": "Christmas Eve"
					},
					"date": "2014-12-24",
					"hours": "09:00 - 17:00",
					"remark": {
						"de": "***delicatessa 07:00 - 17:00",
						"fr": "***delicatessa 07:00 - 17:00",
						"en": "***delicatessa 07:00 - 17:00"
					}
				},
				{
					"day": {
						"de": "Weihnachten",
						"fr": "Noël",
						"en": "Christmas"
					},
					"date": "2014-12-25",
					"hours": "00:00 - 00:00"
				},
				{
					"day": {
						"de": "Stephanstag",
						"fr": "Saint Etienne",
						"en": "St. Stephen's Day"
					},
					"date": "2014-12-26",
					"hours": "00:00 - 00:00"
				},
				{
					"day": {
						"de": "Silvester",
						"fr": "Saint-Sylvestre",
						"en": "New Year's Eve"
					},
					"date": "2014-12-31",
					"hours": "09:00 - 17:00"
				},
				{
					"day": {
						"de": "Neujahr",
						"fr": "Nouvel an",
						"en": "New Year's Day"
					},
					"date": "2015-01-01",
					"hours": "00:00 - 00:00"
				},
				{
					"day": {
						"de": "Berchtoldstag",
						"fr": "Saint Berchtold",
						"en": "Saint Berchtold"
					},
					"date": "2015-01-02",
					"hours": "09:00 - 20:00"
				}]
			},
			{
				"title": {
					"de": "***delicatessa",
					"fr": "***delicatessa",
					"en": "***delicatessa"
				},
				"days": [{
					"day": null,
					"date": "2014-04-07",
					"date2": "2014-10-04",
					"hours": null,
					"remark": {
						"de": "Wegen Umbau von <von> bis <bis> geschlossen",
						"fr": "A cause de rénovation de <von> à <bis> fermé",
						"en": "Because of renovation from <von> to <bis> closed"
					}
				},
				{
					"day": null,
					"date": "2014-04-07",
					"date2": "2014-10-04",
					"hours": null,
					"remark": {
						"de": "Der grosse ***delicatessa Summer Market von <von> bis <bis> vor der Filiale",
						"fr": "Le grand ***delicatessa marché d'été de <von> à <bis> devant la succursale",
						"en": "The great ***delicatessa summer market from <von> to <bis> in front of the store"
					}
				}]
			}]
		},
		{
			"id": 102,
			"name": "GLOBUS Basel",
			"channelName": "Magazine zum Globus AG",
			"address": "Marktplatz 2",
			"zip": 4001,
			"city": "Basel",
			"phone": "+41 58 578 45 45",
			"fax": "+41 58 578 45 88",
			"longitude": 7.587698,
			"latitude": 47.558645,
			"email": "roswitha.ledergerber@globus.ch",
			"manager": {
				"de": "Frau Roswitha Ledergerber",
				"fr": "Madame Roswitha Ledergerber",
				"en": "Mrs. Roswitha Ledergerber"
			},
			"images": [{
				"type": "Thumbnail",
				"url": "http://www.globus.ch//locations/basel//small/small.jpg"
			},
			{
				"type": "Detail",
				"url": "http://www.globus.ch//locations/basel//large/large.jpg"
			}],
			"shopClosed": null,
			"openingTimes": [{
				"days": [{
					"weekday": 1,
					"hours": "09:00 - 18:30"
				},
				{
					"weekday": 2,
					"hours": "09:00 - 18:30"
				},
				{
					"weekday": 3,
					"hours": "09:00 - 18:30"
				},
				{
					"weekday": 4,
					"hours": "09:00 - 20:00"
				},
				{
					"weekday": 5,
					"hours": "09:00 - 20:00"
				},
				{
					"weekday": 6,
					"hours": "09:00 - 18:00"
				},
				{
					"weekday": 7,
					"hours": "00:00 - 00:00"
				}]
			}],
			"holidays": [{
				"days": [{
					"day": {
						"de": "Nationalfeiertag",
						"fr": "Fête nationale",
						"en": "National Holiday"
					},
					"date": "2014-08-01",
					"hours": "00:00 - 00:00"
				},
				{
					"day": {
						"de": "Weihnachtsouverture Basel",
						"fr": "Weihnachtsouverture Basel",
						"en": "Weihnachtsouverture Basel"
					},
					"date": "2014-11-27",
					"hours": "09:00 - 20:00"
				},
				{
					"day": {
						"de": "Erster Advent",
						"fr": "Premier Avent",
						"en": "First Advent"
					},
					"date": "2014-11-30",
					"hours": "00:00 - 00:00"
				},
				{
					"day": {
						"de": "Zweiter Advent",
						"fr": "Deuxième Avent",
						"en": "Second Advent"
					},
					"date": "2014-12-07",
					"hours": "00:00 - 00:00"
				},
				{
					"day": {
						"de": "Maria Empfängnis",
						"fr": "Immaculée Conception",
						"en": "Immaculate Conception"
					},
					"date": "2014-12-08",
					"hours": "09:00 - 18:30"
				},
				{
					"day": {
						"de": "Dritter Advent",
						"fr": "Troisième Avent",
						"en": "Third Advent"
					},
					"date": "2014-12-14",
					"hours": "13:00 - 18:00"
				},
				{
					"day": {
						"de": "Vierter Advent",
						"fr": "Quatrième Avent",
						"en": "Fourth Advent"
					},
					"date": "2014-12-21",
					"hours": "13:00 - 18:00"
				},
				{
					"day": "Vortag Heiliger Abend",
					"date": "2014-12-23",
					"hours": "09:00 - 20:00"
				},
				{
					"day": {
						"de": "Heiliger Abend",
						"fr": "Veille de Noël",
						"en": "Christmas Eve"
					},
					"date": "2014-12-24",
					"hours": "09:00 - 17:00"
				},
				{
					"day": {
						"de": "Weihnachten",
						"fr": "Noël",
						"en": "Christmas"
					},
					"date": "2014-12-25",
					"hours": "00:00 - 00:00"
				},
				{
					"day": {
						"de": "Stephanstag",
						"fr": "Saint Etienne",
						"en": "St. Stephen's Day"
					},
					"date": "2014-12-26",
					"hours": "00:00 - 00:00"
				},
				{
					"day": {
						"de": "Silvester",
						"fr": "Saint-Sylvestre",
						"en": "New Year's Eve"
					},
					"date": "2014-12-31",
					"hours": "09:00 - 17:00"
				},
				{
					"day": {
						"de": "Neujahr",
						"fr": "Nouvel an",
						"en": "New Year's Day"
					},
					"date": "2015-01-01",
					"hours": "00:00 - 00:00"
				},
				{
					"day": {
						"de": "Berchtoldstag",
						"fr": "Saint Berchtold",
						"en": "Saint Berchtold"
					},
					"date": "2015-01-02",
					"hours": "09:00 - 20:00"
				}]
			}]
		},
		{
			"id": 103,
			"name": "GLOBUS St. Gallen",
			"channelName": "Magazine zum Globus AG",
			"address": "Multergasse 47",
			"zip": 9001,
			"city": "St. Gallen",
			"phone": "+41 58 578 16 16",
			"fax": "+41 58 578 16 88",
			"longitude": 9.374465,
			"latitude": 47.423589,
			"email": "ivo.raess@globus.ch",
			"manager": {
				"de": "Herr Ivo Raess",
				"fr": "Monsieur Ivo Raess",
				"en": "Mr. Ivo Raess"
			},
			"images": [{
				"type": "Thumbnail",
				"url": "http://www.globus.ch//locations/st-gallen//small/small.jpg"
			},
			{
				"type": "Detail",
				"url": "http://www.globus.ch//locations/st-gallen//large/large.jpg"
			}],
			"shopClosed": null,
			"openingTimes": [{
				"days": [{
					"weekday": 1,
					"hours": "09:00 - 19:00"
				},
				{
					"weekday": 2,
					"hours": "09:00 - 19:00"
				},
				{
					"weekday": 3,
					"hours": "09:00 - 19:00"
				},
				{
					"weekday": 4,
					"hours": "09:00 - 21:00"
				},
				{
					"weekday": 5,
					"hours": "09:00 - 19:00"
				},
				{
					"weekday": 6,
					"hours": "09:00 - 17:00"
				},
				{
					"weekday": 7,
					"hours": "00:00 - 00:00"
				}]
			}],
			"holidays": [{
				"days": [{
					"day": {
						"de": "Nationalfeiertag",
						"fr": "Fête nationale",
						"en": "National Holiday"
					},
					"date": "2014-08-01",
					"hours": "00:00 - 00:00"
				},
				{
					"day": {
						"de": "Erster Advent",
						"fr": "Premier Avent",
						"en": "First Advent"
					},
					"date": "2014-11-30",
					"hours": "00:00 - 00:00"
				},
				{
					"day": {
						"de": "Zweiter Advent",
						"fr": "Deuxième Avent",
						"en": "Second Advent"
					},
					"date": "2014-12-07",
					"hours": "00:00 - 00:00"
				},
				{
					"day": {
						"de": "Maria Empfängnis",
						"fr": "Immaculée Conception",
						"en": "Immaculate Conception"
					},
					"date": "2014-12-08",
					"hours": "09:00 - 19:00"
				},
				{
					"day": {
						"de": "Dritter Advent",
						"fr": "Troisième Avent",
						"en": "Third Advent"
					},
					"date": "2014-12-14",
					"hours": "12:00 - 17:00"
				},
				{
					"day": {
						"de": "Vierter Advent",
						"fr": "Quatrième Avent",
						"en": "Fourth Advent"
					},
					"date": "2014-12-21",
					"hours": "12:00 - 17:00"
				},
				{
					"day": {
						"de": "Heiliger Abend",
						"fr": "Veille de Noël",
						"en": "Christmas Eve"
					},
					"date": "2014-12-24",
					"hours": "09:00 - 16:00"
				},
				{
					"day": {
						"de": "Weihnachten",
						"fr": "Noël",
						"en": "Christmas"
					},
					"date": "2014-12-25",
					"hours": "00:00 - 00:00"
				},
				{
					"day": {
						"de": "Stephanstag",
						"fr": "Saint Etienne",
						"en": "St. Stephen's Day"
					},
					"date": "2014-12-26",
					"hours": "00:00 - 00:00"
				},
				{
					"day": {
						"de": "Silvester",
						"fr": "Saint-Sylvestre",
						"en": "New Year's Eve"
					},
					"date": "2014-12-31",
					"hours": "09:00 - 16:00"
				},
				{
					"day": {
						"de": "Neujahr",
						"fr": "Nouvel an",
						"en": "New Year's Day"
					},
					"date": "2015-01-01",
					"hours": "00:00 - 00:00"
				},
				{
					"day": {
						"de": "Berchtoldstag",
						"fr": "Saint Berchtold",
						"en": "Saint Berchtold"
					},
					"date": "2015-01-02",
					"hours": "09:00 - 21:00"
				}]
			}]
		},
		{
			"id": 104,
			"name": "GLOBUS Chur",
			"channelName": "Magazine zum Globus AG",
			"address": "Bahnhofplatz 8",
			"zip": 7000,
			"city": "Chur",
			"phone": "+41 58 578 70 70",
			"fax": "+41 58 578 70 88",
			"longitude": 9.529826,
			"latitude": 46.852983,
			"email": "sandra.freitag@globus.ch",
			"manager": {
				"de": "Frau Sandra Freitag",
				"fr": "Madame Sandra Freitag",
				"en": "Mrs. Sandra Freitag"
			},
			"images": [{
				"type": "Thumbnail",
				"url": "http://www.globus.ch//locations/chur//small/small.jpg"
			},
			{
				"type": "Detail",
				"url": "http://www.globus.ch//locations/chur//large/large.jpg"
			}],
			"shopClosed": null,
			"openingTimes": [{
				"days": [{
					"weekday": 1,
					"hours": "09:00 - 19:00"
				},
				{
					"weekday": 2,
					"hours": "09:00 - 19:00"
				},
				{
					"weekday": 3,
					"hours": "09:00 - 19:00"
				},
				{
					"weekday": 4,
					"hours": "09:00 - 19:00"
				},
				{
					"weekday": 5,
					"hours": "09:00 - 20:00"
				},
				{
					"weekday": 6,
					"hours": "09:00 - 18:00"
				},
				{
					"weekday": 7,
					"hours": "00:00 - 00:00"
				}]
			}],
			"holidays": [{
				"days": [{
					"day": {
						"de": "Nationalfeiertag",
						"fr": "Fête nationale",
						"en": "National Holiday"
					},
					"date": "2014-08-01",
					"hours": "00:00 - 00:00"
				},
				{
					"day": {
						"de": "Erster Advent",
						"fr": "Premier Avent",
						"en": "First Advent"
					},
					"date": "2014-11-30",
					"hours": "00:00 - 00:00"
				},
				{
					"day": {
						"de": "Zweiter Advent",
						"fr": "Deuxième Avent",
						"en": "Second Advent"
					},
					"date": "2014-12-07",
					"hours": "00:00 - 00:00"
				},
				{
					"day": {
						"de": "Maria Empfängnis",
						"fr": "Immaculée Conception",
						"en": "Immaculate Conception"
					},
					"date": "2014-12-08",
					"hours": "09:00 - 19:00"
				},
				{
					"day": {
						"de": "Dritter Advent",
						"fr": "Troisième Avent",
						"en": "Third Advent"
					},
					"date": "2014-12-14",
					"hours": "12:00 - 17:00"
				},
				{
					"day": {
						"de": "Vierter Advent",
						"fr": "Quatrième Avent",
						"en": "Fourth Advent"
					},
					"date": "2014-12-21",
					"hours": "12:00 - 17:00"
				},
				{
					"day": {
						"de": "Heiliger Abend",
						"fr": "Veille de Noël",
						"en": "Christmas Eve"
					},
					"date": "2014-12-24",
					"hours": "08:00 - 16:00"
				},
				{
					"day": {
						"de": "Weihnachten",
						"fr": "Noël",
						"en": "Christmas"
					},
					"date": "2014-12-25",
					"hours": "00:00 - 00:00"
				},
				{
					"day": {
						"de": "Stephanstag",
						"fr": "Saint Etienne",
						"en": "St. Stephen's Day"
					},
					"date": "2014-12-26",
					"hours": "00:00 - 00:00"
				},
				{
					"day": {
						"de": "Silvester",
						"fr": "Saint-Sylvestre",
						"en": "New Year's Eve"
					},
					"date": "2014-12-31",
					"hours": "08:00 - 17:00"
				},
				{
					"day": {
						"de": "Neujahr",
						"fr": "Nouvel an",
						"en": "New Year's Day"
					},
					"date": "2015-01-01",
					"hours": "00:00 - 00:00"
				},
				{
					"day": {
						"de": "Berchtoldstag",
						"fr": "Saint Berchtold",
						"en": "Saint Berchtold"
					},
					"date": "2015-01-02",
					"hours": "09:00 - 19:00"
				}]
			}]
		},
		{
			"id": 105,
			"name": "GLOBUS Zürich Bellevue",
			"channelName": "Magazine zum Globus AG",
			"address": "Theaterstrasse 12",
			"zip": 8001,
			"city": "Zürich",
			"phone": "+41 58 578 67 67",
			"fax": "+41 58 578 67 88",
			"longitude": 8.546261,
			"latitude": 47.366681,
			"email": "peter.koller@globus.ch",
			"manager": {
				"de": "Herr Peter Koller",
				"fr": "Monsieur Peter Koller",
				"en": "Mr. Peter Koller"
			},
			"images": [{
				"type": "Thumbnail",
				"url": "http://www.globus.ch//locations/zuerich-bellevue//small/small.jpg"
			},
			{
				"type": "Detail",
				"url": "http://www.globus.ch//locations/zuerich-bellevue//large/large.jpg"
			}],
			"shopClosed": null,
			"openingTimes": [{
				"title": {
					"de": "Filiale",
					"fr": "Succursale",
					"en": "Shop"
				},
				"days": [{
					"weekday": 1,
					"hours": "10:00 - 20:00"
				},
				{
					"weekday": 2,
					"hours": "10:00 - 20:00"
				},
				{
					"weekday": 3,
					"hours": "10:00 - 20:00"
				},
				{
					"weekday": 4,
					"hours": "10:00 - 20:00"
				},
				{
					"weekday": 5,
					"hours": "10:00 - 20:00"
				},
				{
					"weekday": 6,
					"hours": "09:00 - 17:00"
				},
				{
					"weekday": 7,
					"hours": "00:00 - 00:00"
				}]
			},
			{
				"title": {
					"de": "Food Hall / Take-away",
					"fr": "Food Hall / Take-away",
					"en": "Food Hall / Take-away"
				},
				"days": [{
					"weekday": 1,
					"hours": "07:00 - 23:30"
				},
				{
					"weekday": 2,
					"hours": "07:00 - 23:30"
				},
				{
					"weekday": 3,
					"hours": "07:00 - 23:30"
				},
				{
					"weekday": 4,
					"hours": "07:00 - 23:30"
				},
				{
					"weekday": 5,
					"hours": "07:00 - 24:00"
				},
				{
					"weekday": 6,
					"hours": "08:00 - 24:00"
				},
				{
					"weekday": 7,
					"hours": "10:00 - 22:00"
				}]
			}],
			"holidays": [{
				"title": {
					"de": "Filiale",
					"fr": "Succursale",
					"en": "Shop"
				},
				"days": [{
					"day": {
						"de": "Nationalfeiertag",
						"fr": "Fête nationale",
						"en": "National Holiday"
					},
					"date": "2014-08-01",
					"hours": "00:00 - 00:00"
				},
				{
					"day": {
						"de": "Streetparade",
						"fr": "Streetparade",
						"en": "Streetparade"
					},
					"date": "2014-08-02",
					"hours": "09:00 - 17:00"
				},
				{
					"day": {
						"de": "Erster Advent",
						"fr": "Premier Avent",
						"en": "First Advent"
					},
					"date": "2014-11-30",
					"hours": "12:00 - 18:00"
				},
				{
					"day": {
						"de": "Zweiter Advent",
						"fr": "Deuxième Avent",
						"en": "Second Advent"
					},
					"date": "2014-12-07",
					"hours": "12:00 - 18:00"
				},
				{
					"day": {
						"de": "Maria Empfängnis",
						"fr": "Immaculée Conception",
						"en": "Immaculate Conception"
					},
					"date": "2014-12-08",
					"hours": "10:00 - 20:00"
				},
				{
					"day": {
						"de": "Dritter Advent",
						"fr": "Troisième Avent",
						"en": "Third Advent"
					},
					"date": "2014-12-14",
					"hours": "00:00 - 00:00"
				},
				{
					"day": {
						"de": "Vierter Advent",
						"fr": "Quatrième Avent",
						"en": "Fourth Advent"
					},
					"date": "2014-12-21",
					"hours": "10:00 - 18:00"
				},
				{
					"day": {
						"de": "Heiliger Abend",
						"fr": "Veille de Noël",
						"en": "Christmas Eve"
					},
					"date": "2014-12-24",
					"hours": "08:00 - 16:00"
				},
				{
					"day": {
						"de": "Weihnachten",
						"fr": "Noël",
						"en": "Christmas"
					},
					"date": "2014-12-25",
					"hours": "00:00 - 00:00"
				},
				{
					"day": {
						"de": "Stephanstag",
						"fr": "Saint Etienne",
						"en": "St. Stephen's Day"
					},
					"date": "2014-12-26",
					"hours": "00:00 - 00:00"
				},
				{
					"day": {
						"de": "Silvester",
						"fr": "Saint-Sylvestre",
						"en": "New Year's Eve"
					},
					"date": "2014-12-31",
					"hours": "08:00 - 16:00"
				},
				{
					"day": {
						"de": "Neujahr",
						"fr": "Nouvel an",
						"en": "New Year's Day"
					},
					"date": "2015-01-01",
					"hours": "00:00 - 00:00"
				},
				{
					"day": {
						"de": "Berchtoldstag",
						"fr": "Saint Berchtold",
						"en": "Saint Berchtold"
					},
					"date": "2015-01-02",
					"hours": "10:00 - 20:00"
				}]
			},
			{
				"title": {
					"de": "Food Hall / Take-away",
					"fr": "Food Hall / Take-away",
					"en": "Food Hall / Take-away"
				},
				"days": [{
					"day": {
						"de": "Nationalfeiertag",
						"fr": "Fête nationale",
						"en": "National Holiday"
					},
					"date": "2014-08-01",
					"hours": "00:00 - 00:00"
				},
				{
					"day": {
						"de": "Streetparade",
						"fr": "Streetparade",
						"en": "Streetparade"
					},
					"date": "2014-08-02",
					"hours": "08:00 - 24:00"
				},
				{
					"day": {
						"de": "Erster Advent",
						"fr": "Premier Avent",
						"en": "First Advent"
					},
					"date": "2014-11-30",
					"hours": "12:00 - 18:00"
				},
				{
					"day": {
						"de": "Zweiter Advent",
						"fr": "Deuxième Avent",
						"en": "Second Advent"
					},
					"date": "2014-12-07",
					"hours": "12:00 - 18:00"
				},
				{
					"day": {
						"de": "Maria Empfängnis",
						"fr": "Immaculée Conception",
						"en": "Immaculate Conception"
					},
					"date": "2014-12-08",
					"hours": "07:00 - 23:30"
				},
				{
					"day": {
						"de": "Dritter Advent",
						"fr": "Troisième Avent",
						"en": "Third Advent"
					},
					"date": "2014-12-14",
					"hours": "00:00 - 00:00"
				},
				{
					"day": {
						"de": "Vierter Advent",
						"fr": "Quatrième Avent",
						"en": "Fourth Advent"
					},
					"date": "2014-12-21",
					"hours": "10:00 - 18:00"
				},
				{
					"day": {
						"de": "Heiliger Abend",
						"fr": "Veille de Noël",
						"en": "Christmas Eve"
					},
					"date": "2014-12-24",
					"hours": "07:00 - 16:00"
				},
				{
					"day": {
						"de": "Weihnachten",
						"fr": "Noël",
						"en": "Christmas"
					},
					"date": "2014-12-25",
					"hours": "00:00 - 00:00"
				},
				{
					"day": {
						"de": "Stephanstag",
						"fr": "Saint Etienne",
						"en": "St. Stephen's Day"
					},
					"date": "2014-12-26",
					"hours": "00:00 - 00:00"
				},
				{
					"day": {
						"de": "Silvester",
						"fr": "Saint-Sylvestre",
						"en": "New Year's Eve"
					},
					"date": "2014-12-31",
					"hours": "07:00 - 17:00"
				},
				{
					"day": {
						"de": "Neujahr",
						"fr": "Nouvel an",
						"en": "New Year's Day"
					},
					"date": "2015-01-01",
					"hours": "00:00 - 00:00"
				},
				{
					"day": {
						"de": "Berchtoldstag",
						"fr": "Saint Berchtold",
						"en": "Saint Berchtold"
					},
					"date": "2015-01-02",
					"hours": "07:00 - 23:30"
				}]
			}]
		},
		{
			"id": 106,
			"name": "GLOBUS Bern",
			"channelName": "Magazine zum Globus AG",
			"address": "Spitalgasse 17",
			"zip": 3001,
			"city": "Bern",
			"phone": "+41 58 578 40 40",
			"fax": "+41 58 578 40 88",
			"longitude": 7.442678,
			"latitude": 46.947934,
			"email": "david.simon@globus.ch",
			"manager": {
				"de": "Herr David Simon",
				"fr": "Monsieur David Simon",
				"en": "Mr. David Simon"
			},
			"images": [{
				"type": "Thumbnail",
				"url": "http://www.globus.ch//locations/bern-spitalgasse//small/small.jpg"
			},
			{
				"type": "Detail",
				"url": "http://www.globus.ch//locations/bern-spitalgasse//large/large.jpg"
			}],
			"shopClosed": null,
			"openingTimes": [{
				"days": [{
					"weekday": 1,
					"hours": "09:00 - 19:00"
				},
				{
					"weekday": 2,
					"hours": "09:00 - 19:00"
				},
				{
					"weekday": 3,
					"hours": "09:00 - 19:00"
				},
				{
					"weekday": 4,
					"hours": "09:00 - 21:00"
				},
				{
					"weekday": 5,
					"hours": "09:00 - 19:00"
				},
				{
					"weekday": 6,
					"hours": "08:00 - 17:00"
				},
				{
					"weekday": 7,
					"hours": "00:00 - 00:00"
				}]
			}],
			"holidays": [{
				"days": [{
					"day": {
						"de": "Nationalfeiertag",
						"fr": "Fête nationale",
						"en": "National Holiday"
					},
					"date": "2014-08-01",
					"hours": "00:00 - 00:00"
				},
				{
					"day": {
						"de": "Zibelemärit",
						"fr": "Foire aux oignons",
						"en": "Onion Market"
					},
					"date": "2014-11-24",
					"hours": "07:00 - 20:00"
				},
				{
					"day": {
						"de": "Erster Advent",
						"fr": "Premier Avent",
						"en": "First Advent"
					},
					"date": "2014-11-30",
					"hours": "00:00 - 00:00"
				},
				{
					"day": {
						"de": "Zweiter Advent",
						"fr": "Deuxième Avent",
						"en": "Second Advent"
					},
					"date": "2014-12-07",
					"hours": "00:00 - 00:00"
				},
				{
					"day": {
						"de": "Maria Empfängnis",
						"fr": "Immaculée Conception",
						"en": "Immaculate Conception"
					},
					"date": "2014-12-08",
					"hours": "09:00 - 19:00"
				},
				{
					"day": {
						"de": "Dritter Advent",
						"fr": "Troisième Avent",
						"en": "Third Advent"
					},
					"date": "2014-12-14",
					"hours": "10:00 - 18:00"
				},
				{
					"day": {
						"de": "Vierter Advent",
						"fr": "Quatrième Avent",
						"en": "Fourth Advent"
					},
					"date": "2014-12-21",
					"hours": "10:00 - 18:00"
				},
				{
					"day": {
						"de": "Heiliger Abend",
						"fr": "Veille de Noël",
						"en": "Christmas Eve"
					},
					"date": "2014-12-24",
					"hours": "08:00 - 17:00"
				},
				{
					"day": {
						"de": "Weihnachten",
						"fr": "Noël",
						"en": "Christmas"
					},
					"date": "2014-12-25",
					"hours": "00:00 - 00:00"
				},
				{
					"day": {
						"de": "Stephanstag",
						"fr": "Saint Etienne",
						"en": "St. Stephen's Day"
					},
					"date": "2014-12-26",
					"hours": "00:00 - 00:00"
				},
				{
					"day": {
						"de": "Silvester",
						"fr": "Saint-Sylvestre",
						"en": "New Year's Eve"
					},
					"date": "2014-12-31",
					"hours": "08:00 - 17:00"
				},
				{
					"day": {
						"de": "Neujahr",
						"fr": "Nouvel an",
						"en": "New Year's Day"
					},
					"date": "2015-01-01",
					"hours": "00:00 - 00:00"
				},
				{
					"day": {
						"de": "Berchtoldstag",
						"fr": "Saint Berchtold",
						"en": "Saint Berchtold"
					},
					"date": "2015-01-02",
					"hours": "00:00 - 00:00"
				}]
			}]
		},
		{
			"id": 107,
			"name": "GLOBUS Glattzentrum",
			"channelName": "Magazine zum Globus AG",
			"address": "Neue Winterthurerstr. 99",
			"zip": 8301,
			"city": "Glattzentrum",
			"phone": "+41 58 578 80 80",
			"fax": "+41 58 578 80 88",
			"longitude": 8.59574,
			"latitude": 47.409109,
			"email": "bettina.dalm@globus.ch",
			"manager": {
				"de": "Frau Bettina Dalm",
				"fr": "Madame Bettina Dalm",
				"en": "Mrs. Bettina Dalm"
			},
			"images": [{
				"type": "Thumbnail",
				"url": "http://www.globus.ch//locations/glattzentrum//small/small.jpg"
			},
			{
				"type": "Detail",
				"url": "http://www.globus.ch//locations/glattzentrum//large/large.jpg"
			}],
			"shopClosed": null,
			"openingTimes": [{
				"days": [{
					"weekday": 1,
					"hours": "09:00 - 20:00"
				},
				{
					"weekday": 2,
					"hours": "09:00 - 20:00"
				},
				{
					"weekday": 3,
					"hours": "09:00 - 20:00"
				},
				{
					"weekday": 4,
					"hours": "09:00 - 20:00"
				},
				{
					"weekday": 5,
					"hours": "09:00 - 20:00"
				},
				{
					"weekday": 6,
					"hours": "09:00 - 20:00"
				},
				{
					"weekday": 7,
					"hours": "00:00 - 00:00"
				}]
			}],
			"holidays": [{
				"days": [{
					"day": {
						"de": "Nationalfeiertag",
						"fr": "Fête nationale",
						"en": "National Holiday"
					},
					"date": "2014-08-01",
					"hours": "00:00 - 00:00"
				},
				{
					"day": {
						"de": "Erster Advent",
						"fr": "Premier Avent",
						"en": "First Advent"
					},
					"date": "2014-11-30",
					"hours": "10:00 - 18:00"
				},
				{
					"day": {
						"de": "Zweiter Advent",
						"fr": "Deuxième Avent",
						"en": "Second Advent"
					},
					"date": "2014-12-07",
					"hours": "00:00 - 00:00"
				},
				{
					"day": {
						"de": "Maria Empfängnis",
						"fr": "Immaculée Conception",
						"en": "Immaculate Conception"
					},
					"date": "2014-12-08",
					"hours": "09:00 - 20:00"
				},
				{
					"day": {
						"de": "Dritter Advent",
						"fr": "Troisième Avent",
						"en": "Third Advent"
					},
					"date": "2014-12-14",
					"hours": "10:00 - 18:00"
				},
				{
					"day": {
						"de": "Vierter Advent",
						"fr": "Quatrième Avent",
						"en": "Fourth Advent"
					},
					"date": "2014-12-21",
					"hours": "10:00 - 18:00"
				},
				{
					"day": {
						"de": "Heiliger Abend",
						"fr": "Veille de Noël",
						"en": "Christmas Eve"
					},
					"date": "2014-12-24",
					"hours": "08:00 - 16:00"
				},
				{
					"day": {
						"de": "Weihnachten",
						"fr": "Noël",
						"en": "Christmas"
					},
					"date": "2014-12-25",
					"hours": "00:00 - 00:00"
				},
				{
					"day": {
						"de": "Stephanstag",
						"fr": "Saint Etienne",
						"en": "St. Stephen's Day"
					},
					"date": "2014-12-26",
					"hours": "00:00 - 00:00"
				},
				{
					"day": {
						"de": "Silvester",
						"fr": "Saint-Sylvestre",
						"en": "New Year's Eve"
					},
					"date": "2014-12-31",
					"hours": "08:00 - 16:00"
				},
				{
					"day": {
						"de": "Neujahr",
						"fr": "Nouvel an",
						"en": "New Year's Day"
					},
					"date": "2015-01-01",
					"hours": "00:00 - 00:00"
				},
				{
					"day": {
						"de": "Berchtoldstag",
						"fr": "Saint Berchtold",
						"en": "Saint Berchtold"
					},
					"date": "2015-01-02",
					"hours": "09:00 - 20:00"
				}]
			}]
		},
		{
			"id": 108,
			"name": "GLOBUS Westside",
			"channelName": "Magazine zum Globus AG",
			"address": "Gilberte-de-Courgenay-Platz 4",
			"zip": 3027,
			"city": "Bern",
			"phone": "+41 58 578 85 85",
			"fax": "+41 58 578 85 88",
			"longitude": 7.374287,
			"latitude": 46.944426,
			"email": "roger.rittscher@globus.ch",
			"manager": {
				"de": "Herr Roger Rittscher",
				"fr": "Monsieur Roger Rittscher",
				"en": "Mr. Roger Rittscher"
			},
			"images": [{
				"type": "Thumbnail",
				"url": "http://www.globus.ch//locations/bern-westside//small/small.jpg"
			},
			{
				"type": "Detail",
				"url": "http://www.globus.ch//locations/bern-westside//large/large.jpg"
			}],
			"shopClosed": null,
			"openingTimes": [{
				"days": [{
					"weekday": 1,
					"hours": "09:00 - 20:00"
				},
				{
					"weekday": 2,
					"hours": "09:00 - 20:00"
				},
				{
					"weekday": 3,
					"hours": "09:00 - 20:00"
				},
				{
					"weekday": 4,
					"hours": "09:00 - 20:00"
				},
				{
					"weekday": 5,
					"hours": "09:00 - 22:00"
				},
				{
					"weekday": 6,
					"hours": "08:00 - 17:00"
				},
				{
					"weekday": 7,
					"hours": "00:00 - 00:00"
				}]
			}],
			"holidays": [{
				"days": [{
					"day": {
						"de": "Nationalfeiertag",
						"fr": "Fête nationale",
						"en": "National Holiday"
					},
					"date": "2014-08-01",
					"hours": "00:00 - 00:00"
				},
				{
					"day": {
						"de": "Zibelemärit",
						"fr": "Foire aux oignons",
						"en": "Onion Market"
					},
					"date": "2014-11-24",
					"hours": "09:00 - 20:00"
				},
				{
					"day": {
						"de": "Erster Advent",
						"fr": "Premier Avent",
						"en": "First Advent"
					},
					"date": "2014-11-30",
					"hours": "00:00 - 00:00"
				},
				{
					"day": {
						"de": "Zweiter Advent",
						"fr": "Deuxième Avent",
						"en": "Second Advent"
					},
					"date": "2014-12-07",
					"hours": "00:00 - 00:00"
				},
				{
					"day": {
						"de": "Maria Empfängnis",
						"fr": "Immaculée Conception",
						"en": "Immaculate Conception"
					},
					"date": "2014-12-08",
					"hours": "09:00 - 20:00"
				},
				{
					"day": {
						"de": "Dritter Advent",
						"fr": "Troisième Avent",
						"en": "Third Advent"
					},
					"date": "2014-12-14",
					"hours": "10:00 - 18:00"
				},
				{
					"day": {
						"de": "Vierter Advent",
						"fr": "Quatrième Avent",
						"en": "Fourth Advent"
					},
					"date": "2014-12-21",
					"hours": "10:00 - 18:00"
				},
				{
					"day": {
						"de": "Heiliger Abend",
						"fr": "Veille de Noël",
						"en": "Christmas Eve"
					},
					"date": "2014-12-24",
					"hours": "08:00 - 17:00"
				},
				{
					"day": {
						"de": "Weihnachten",
						"fr": "Noël",
						"en": "Christmas"
					},
					"date": "2014-12-25",
					"hours": "00:00 - 00:00"
				},
				{
					"day": {
						"de": "Stephanstag",
						"fr": "Saint Etienne",
						"en": "St. Stephen's Day"
					},
					"date": "2014-12-26",
					"hours": "00:00 - 00:00"
				},
				{
					"day": {
						"de": "Silvester",
						"fr": "Saint-Sylvestre",
						"en": "New Year's Eve"
					},
					"date": "2014-12-31",
					"hours": "08:00 - 17:00"
				},
				{
					"day": {
						"de": "Neujahr",
						"fr": "Nouvel an",
						"en": "New Year's Day"
					},
					"date": "2015-01-01",
					"hours": "00:00 - 00:00"
				},
				{
					"day": {
						"de": "Berchtoldstag",
						"fr": "Saint Berchtold",
						"en": "Saint Berchtold"
					},
					"date": "2015-01-02",
					"hours": "00:00 - 00:00"
				}]
			}]
		},
		{
			"id": 109,
			"name": "GLOBUS Centre Balexert",
			"channelName": "Grands Magasins Globus SA",
			"address": "av. Louis-Casaï 27",
			"zip": 1211,
			"city": "Genève",
			"phone": "+41 58 578 90 90",
			"fax": "+41 58 578 90 88",
			"longitude": 6.113019,
			"latitude": 46.218968,
			"email": "ursula.barben@globus.ch",
			"manager": {
				"de": "Frau Ursula Barben",
				"fr": "Madame Ursula Barben",
				"en": "Mrs. Ursula Barben"
			},
			"images": [{
				"type": "Thumbnail",
				"url": "http://www.globus.ch//locations/geneve-balexert//small/small.jpg"
			},
			{
				"type": "Detail",
				"url": "http://www.globus.ch//locations/geneve-balexert//large/large.jpg"
			}],
			"shopClosed": null,
			"openingTimes": [{
				"days": [{
					"weekday": 1,
					"hours": "09:30 - 19:00"
				},
				{
					"weekday": 2,
					"hours": "09:30 - 19:00"
				},
				{
					"weekday": 3,
					"hours": "09:30 - 19:00"
				},
				{
					"weekday": 4,
					"hours": "09:30 - 21:00"
				},
				{
					"weekday": 5,
					"hours": "09:30 - 19:30"
				},
				{
					"weekday": 6,
					"hours": "09:00 - 18:00"
				},
				{
					"weekday": 7,
					"hours": "00:00 - 00:00"
				}]
			}],
			"holidays": [{
				"days": [{
					"day": {
						"de": "Nationalfeiertag",
						"fr": "Fête nationale",
						"en": "National Holiday"
					},
					"date": "2014-08-01",
					"hours": "00:00 - 00:00"
				},
				{
					"day": {
						"de": "Erster Advent",
						"fr": "Premier Avent",
						"en": "First Advent"
					},
					"date": "2014-11-30",
					"hours": "00:00 - 00:00"
				},
				{
					"day": {
						"de": "Zweiter Advent",
						"fr": "Deuxième Avent",
						"en": "Second Advent"
					},
					"date": "2014-12-07",
					"hours": "00:00 - 00:00"
				},
				{
					"day": {
						"de": "Maria Empfängnis",
						"fr": "Immaculée Conception",
						"en": "Immaculate Conception"
					},
					"date": "2014-12-08",
					"hours": "09:30 - 19:00"
				},
				{
					"day": {
						"de": "Dritter Advent",
						"fr": "Troisième Avent",
						"en": "Third Advent"
					},
					"date": "2014-12-14",
					"hours": "00:00 - 00:00"
				},
				{
					"day": {
						"de": "Vierter Advent",
						"fr": "Quatrième Avent",
						"en": "Fourth Advent"
					},
					"date": "2014-12-21",
					"hours": "00:00 - 00:00"
				},
				{
					"day": "Vortag Heiliger Abend",
					"date": "2014-12-23",
					"hours": "09:00 - 22:00"
				},
				{
					"day": {
						"de": "Heiliger Abend",
						"fr": "Veille de Noël",
						"en": "Christmas Eve"
					},
					"date": "2014-12-24",
					"hours": "09:00 - 18:00"
				},
				{
					"day": {
						"de": "Weihnachten",
						"fr": "Noël",
						"en": "Christmas"
					},
					"date": "2014-12-25",
					"hours": "00:00 - 00:00"
				},
				{
					"day": {
						"de": "Stephanstag",
						"fr": "Saint Etienne",
						"en": "St. Stephen's Day"
					},
					"date": "2014-12-26",
					"hours": "09:30 - 21:00"
				},
				{
					"day": {
						"de": "Silvester",
						"fr": "Saint-Sylvestre",
						"en": "New Year's Eve"
					},
					"date": "2014-12-31",
					"hours": "09:00 - 17:00"
				},
				{
					"day": {
						"de": "Neujahr",
						"fr": "Nouvel an",
						"en": "New Year's Day"
					},
					"date": "2015-01-01",
					"hours": "00:00 - 00:00"
				},
				{
					"day": {
						"de": "Berchtoldstag",
						"fr": "Saint Berchtold",
						"en": "Saint Berchtold"
					},
					"date": "2015-01-02",
					"hours": "00:00 - 00:00"
				}]
			}]
		},
		{
			"id": 110,
			"name": "GLOBUS Luzern",
			"channelName": "Magazine zum Globus AG",
			"address": "Pilatusstrasse 4",
			"zip": 6002,
			"city": "Luzern",
			"phone": "+41 58 578 55 55",
			"fax": "+41 58 578 55 88",
			"longitude": 8.308271,
			"latitude": 47.04997,
			"email": "mauro.caduff@globus.ch",
			"manager": {
				"de": "Herr Mauro Caduff (a.i.)",
				"fr": "Monsieur Mauro Caduff (par intérim)",
				"en": "Mr. Mauro Caduff (a.i.)"
			},
			"images": [{
				"type": "Thumbnail",
				"url": "http://www.globus.ch//locations/luzern//small/small.jpg"
			},
			{
				"type": "Detail",
				"url": "http://www.globus.ch//locations/luzern//large/large.jpg"
			}],
			"shopClosed": null,
			"openingTimes": [{
				"days": [{
					"weekday": 1,
					"hours": "09:00 - 18:30"
				},
				{
					"weekday": 2,
					"hours": "09:00 - 18:30"
				},
				{
					"weekday": 3,
					"hours": "09:00 - 18:30"
				},
				{
					"weekday": 4,
					"hours": "09:00 - 21:00"
				},
				{
					"weekday": 5,
					"hours": "09:00 - 21:00"
				},
				{
					"weekday": 6,
					"hours": "09:00 - 16:00"
				},
				{
					"weekday": 7,
					"hours": "00:00 - 00:00"
				}]
			}],
			"holidays": [{
				"days": [{
					"day": {
						"de": "Nationalfeiertag",
						"fr": "Fête nationale",
						"en": "National Holiday"
					},
					"date": "2014-08-01",
					"hours": "00:00 - 00:00"
				},
				{
					"day": {
						"de": "Erster Advent",
						"fr": "Premier Avent",
						"en": "First Advent"
					},
					"date": "2014-11-30",
					"hours": "00:00 - 00:00"
				},
				{
					"day": {
						"de": "Zweiter Advent",
						"fr": "Deuxième Avent",
						"en": "Second Advent"
					},
					"date": "2014-12-07",
					"hours": "09:00 - 18:30"
				},
				{
					"day": {
						"de": "Maria Empfängnis",
						"fr": "Immaculée Conception",
						"en": "Immaculate Conception"
					},
					"date": "2014-12-08",
					"hours": "09:00 - 18:30"
				},
				{
					"day": {
						"de": "Dritter Advent",
						"fr": "Troisième Avent",
						"en": "Third Advent"
					},
					"date": "2014-12-14",
					"hours": "09:00 - 18:30"
				},
				{
					"day": {
						"de": "Vierter Advent",
						"fr": "Quatrième Avent",
						"en": "Fourth Advent"
					},
					"date": "2014-12-21",
					"hours": "09:00 - 18:30"
				},
				{
					"day": {
						"de": "Heiliger Abend",
						"fr": "Veille de Noël",
						"en": "Christmas Eve"
					},
					"date": "2014-12-24",
					"hours": "08:00 - 16:00, 1.UG und Parterre ab 07:00 geöffnet"
				},
				{
					"day": {
						"de": "Weihnachten",
						"fr": "Noël",
						"en": "Christmas"
					},
					"date": "2014-12-25",
					"hours": "00:00 - 00:00"
				},
				{
					"day": {
						"de": "Stephanstag",
						"fr": "Saint Etienne",
						"en": "St. Stephen's Day"
					},
					"date": "2014-12-26",
					"hours": "00:00 - 00:00"
				},
				{
					"day": {
						"de": "Silvester",
						"fr": "Saint-Sylvestre",
						"en": "New Year's Eve"
					},
					"date": "2014-12-31",
					"hours": "08:00 - 16:00"
				},
				{
					"day": {
						"de": "Neujahr",
						"fr": "Nouvel an",
						"en": "New Year's Day"
					},
					"date": "2015-01-01",
					"hours": "00:00 - 00:00"
				},
				{
					"day": {
						"de": "Berchtoldstag",
						"fr": "Saint Berchtold",
						"en": "Saint Berchtold"
					},
					"date": "2015-01-02",
					"hours": "09:00 - 21:00"
				}]
			}]
		},
		{
			"id": 111,
			"name": "GLOBUS Sox Box Shopville",
			"channelName": "Magazine zum Globus AG",
			"address": "Museumstrasse",
			"zip": 8001,
			"city": "Zürich",
			"phone": "+41 58 578 10 50",
			"fax": null,
			"longitude": 8.540673,
			"latitude": 47.377189,
			"email": "soxbox.zuerich@globus.ch",
			"manager": {
				"de": "Herr François Joseph Licodia",
				"fr": "Monsieur François Joseph Licodia",
				"en": "Mr. François Joseph Licodia"
			},
			"images": [{
				"type": "Thumbnail",
				"url": null
			},
			{
				"type": "Detail",
				"url": null
			}],
			"shopClosed": null,
			"openingTimes": [{
				"days": [{
					"weekday": 1,
					"hours": "08:00 - 21:00"
				},
				{
					"weekday": 2,
					"hours": "08:00 - 21:00"
				},
				{
					"weekday": 3,
					"hours": "08:00 - 21:00"
				},
				{
					"weekday": 4,
					"hours": "08:00 - 21:00"
				},
				{
					"weekday": 5,
					"hours": "08:00 - 21:00"
				},
				{
					"weekday": 6,
					"hours": "08:00 - 20:00"
				},
				{
					"weekday": 7,
					"hours": "09:00 - 20:00"
				}]
			}],
			"holidays": [{
				"days": [{
					"day": {
						"de": "Nationalfeiertag",
						"fr": "Fête nationale",
						"en": "National Holiday"
					},
					"date": "2014-08-01",
					"hours": "08:00 - 20:00"
				},
				{
					"day": {
						"de": "Streetparade",
						"fr": "Streetparade",
						"en": "Streetparade"
					},
					"date": "2014-08-02",
					"hours": "08:00 - 20:00"
				},
				{
					"day": {
						"de": "Erster Advent",
						"fr": "Premier Avent",
						"en": "First Advent"
					},
					"date": "2014-11-30",
					"hours": "09:00 - 20:00"
				},
				{
					"day": {
						"de": "Zweiter Advent",
						"fr": "Deuxième Avent",
						"en": "Second Advent"
					},
					"date": "2014-12-07",
					"hours": "09:00 - 20:00"
				},
				{
					"day": {
						"de": "Maria Empfängnis",
						"fr": "Immaculée Conception",
						"en": "Immaculate Conception"
					},
					"date": "2014-12-08",
					"hours": "09:00 - 20:00"
				},
				{
					"day": {
						"de": "Dritter Advent",
						"fr": "Troisième Avent",
						"en": "Third Advent"
					},
					"date": "2014-12-14",
					"hours": "09:00 - 20:00"
				},
				{
					"day": {
						"de": "Vierter Advent",
						"fr": "Quatrième Avent",
						"en": "Fourth Advent"
					},
					"date": "2014-12-21",
					"hours": "09:00 - 20:00"
				},
				{
					"day": {
						"de": "Heiliger Abend",
						"fr": "Veille de Noël",
						"en": "Christmas Eve"
					},
					"date": "2014-12-24",
					"hours": "08:00 - 18:00"
				},
				{
					"day": {
						"de": "Weihnachten",
						"fr": "Noël",
						"en": "Christmas"
					},
					"date": "2014-12-25",
					"hours": "08:00 - 18:00"
				},
				{
					"day": {
						"de": "Stephanstag",
						"fr": "Saint Etienne",
						"en": "St. Stephen's Day"
					},
					"date": "2014-12-26",
					"hours": "08:00 - 20:00"
				},
				{
					"day": {
						"de": "Silvester",
						"fr": "Saint-Sylvestre",
						"en": "New Year's Eve"
					},
					"date": "2014-12-31",
					"hours": "08:00 - 18:00"
				},
				{
					"day": {
						"de": "Neujahr",
						"fr": "Nouvel an",
						"en": "New Year's Day"
					},
					"date": "2015-01-01",
					"hours": "10:00 - 20:00"
				},
				{
					"day": {
						"de": "Berchtoldstag",
						"fr": "Saint Berchtold",
						"en": "Saint Berchtold"
					},
					"date": "2015-01-02",
					"hours": "08:00 - 21:00"
				}]
			}]
		},
		{
			"id": 114,
			"name": "GLOBUS Marin Centre",
			"channelName": "Grands Magasins Globus SA",
			"address": "Rue de la Fleur-de-Lys 26",
			"zip": 2074,
			"city": "Marin-Epagnier",
			"phone": "+41 58 578 73 73",
			"fax": "+41 58 578 73 88",
			"longitude": 7.005458,
			"latitude": 47.010749,
			"email": "jacques.louviot@globus.ch",
			"manager": {
				"de": "Herr Jacques Louviot",
				"fr": "Monsieur Jacques Louviot",
				"en": "Mr. Jacques Louviot"
			},
			"images": [{
				"type": "Thumbnail",
				"url": "http://www.globus.ch//locations/neuchatel//small/small.jpg"
			},
			{
				"type": "Detail",
				"url": "http://www.globus.ch//locations/neuchatel//large/large.jpg"
			}],
			"shopClosed": null,
			"openingTimes": [{
				"days": [{
					"weekday": 1,
					"hours": "08:00 - 18:30"
				},
				{
					"weekday": 2,
					"hours": "08:00 - 18:30"
				},
				{
					"weekday": 3,
					"hours": "08:00 - 18:30"
				},
				{
					"weekday": 4,
					"hours": "08:00 - 20:00"
				},
				{
					"weekday": 5,
					"hours": "08:00 - 18:30"
				},
				{
					"weekday": 6,
					"hours": "08:00 - 17:00"
				},
				{
					"weekday": 7,
					"hours": "00:00 - 00:00"
				}]
			}],
			"holidays": [{
				"days": [{
					"day": {
						"de": "Nationalfeiertag",
						"fr": "Fête nationale",
						"en": "National Holiday"
					},
					"date": "2014-08-01",
					"hours": "00:00 - 00:00"
				},
				{
					"day": {
						"de": "Erster Advent",
						"fr": "Premier Avent",
						"en": "First Advent"
					},
					"date": "2014-11-30",
					"hours": "00:00 - 00:00"
				},
				{
					"day": {
						"de": "Zweiter Advent",
						"fr": "Deuxième Avent",
						"en": "Second Advent"
					},
					"date": "2014-12-07",
					"hours": "00:00 - 00:00"
				},
				{
					"day": {
						"de": "Maria Empfängnis",
						"fr": "Immaculée Conception",
						"en": "Immaculate Conception"
					},
					"date": "2014-12-08",
					"hours": "08:00 - 19:00"
				},
				{
					"day": {
						"de": "Dritter Advent",
						"fr": "Troisième Avent",
						"en": "Third Advent"
					},
					"date": "2014-12-14",
					"hours": "00:00 - 00:00"
				},
				{
					"day": {
						"de": "Vierter Advent",
						"fr": "Quatrième Avent",
						"en": "Fourth Advent"
					},
					"date": "2014-12-21",
					"hours": "00:00 - 00:00"
				},
				{
					"day": "Vortag Heiliger Abend",
					"date": "2014-12-23",
					"hours": "08:00 - 18:30"
				},
				{
					"day": {
						"de": "Heiliger Abend",
						"fr": "Veille de Noël",
						"en": "Christmas Eve"
					},
					"date": "2014-12-24",
					"hours": "08:00 - 18:30"
				},
				{
					"day": {
						"de": "Weihnachten",
						"fr": "Noël",
						"en": "Christmas"
					},
					"date": "2014-12-25",
					"hours": "00:00 - 00:00"
				},
				{
					"day": {
						"de": "Stephanstag",
						"fr": "Saint Etienne",
						"en": "St. Stephen's Day"
					},
					"date": "2014-12-26",
					"hours": "00:00 - 00:00"
				},
				{
					"day": "Vortag Silvester",
					"date": "2014-12-30",
					"hours": "08:00 - 19:00"
				},
				{
					"day": {
						"de": "Silvester",
						"fr": "Saint-Sylvestre",
						"en": "New Year's Eve"
					},
					"date": "2014-12-31",
					"hours": "08:00 - 18:00"
				},
				{
					"day": {
						"de": "Neujahr",
						"fr": "Nouvel an",
						"en": "New Year's Day"
					},
					"date": "2015-01-01",
					"hours": "00:00 - 00:00"
				},
				{
					"day": {
						"de": "Berchtoldstag",
						"fr": "Saint Berchtold",
						"en": "Saint Berchtold"
					},
					"date": "2015-01-02",
					"hours": "00:00 - 00:00"
				}]
			}]
		},
		{
			"id": 115,
			"name": "GLOBUS Lausanne",
			"channelName": "Grands Magasins Globus SA",
			"address": "5, rue du Pont",
			"zip": 1003,
			"city": "Lausanne",
			"phone": "+41 58 578 75 75",
			"fax": "+41 58 578 75 88",
			"longitude": 6.633547,
			"latitude": 46.521336,
			"email": "patrick.capt@globus.ch",
			"manager": {
				"de": "Herr Patrick Capt",
				"fr": "Monsieur Patrick Capt",
				"en": "Mr. Patrick Capt"
			},
			"images": [{
				"type": "Thumbnail",
				"url": "http://www.globus.ch//locations/lausanne//small/small.jpg"
			},
			{
				"type": "Detail",
				"url": "http://www.globus.ch//locations/lausanne//large/large.jpg"
			}],
			"shopClosed": null,
			"openingTimes": [{
				"days": [{
					"weekday": 1,
					"hours": "09:00 - 19:00"
				},
				{
					"weekday": 2,
					"hours": "09:00 - 19:00"
				},
				{
					"weekday": 3,
					"hours": "09:00 - 19:00"
				},
				{
					"weekday": 4,
					"hours": "09:00 - 19:00"
				},
				{
					"weekday": 5,
					"hours": "09:00 - 19:00"
				},
				{
					"weekday": 6,
					"hours": "08:00 - 18:00"
				},
				{
					"weekday": 7,
					"hours": "00:00 - 00:00"
				}]
			}],
			"holidays": [{
				"days": [{
					"day": {
						"de": "Nationalfeiertag",
						"fr": "Fête nationale",
						"en": "National Holiday"
					},
					"date": "2014-08-01",
					"hours": "00:00 - 00:00"
				},
				{
					"day": {
						"de": "Erster Advent",
						"fr": "Premier Avent",
						"en": "First Advent"
					},
					"date": "2014-11-30",
					"hours": "00:00 - 00:00"
				},
				{
					"day": {
						"de": "Zweiter Advent",
						"fr": "Deuxième Avent",
						"en": "Second Advent"
					},
					"date": "2014-12-07",
					"hours": "00:00 - 00:00"
				},
				{
					"day": {
						"de": "Maria Empfängnis",
						"fr": "Immaculée Conception",
						"en": "Immaculate Conception"
					},
					"date": "2014-12-08",
					"hours": "09:00 - 19:00"
				},
				{
					"day": {
						"de": "Dritter Advent",
						"fr": "Troisième Avent",
						"en": "Third Advent"
					},
					"date": "2014-12-14",
					"hours": "00:00 - 00:00"
				},
				{
					"day": {
						"de": "Vierter Advent",
						"fr": "Quatrième Avent",
						"en": "Fourth Advent"
					},
					"date": "2014-12-21",
					"hours": "00:00 - 00:00"
				},
				{
					"day": {
						"de": "Heiliger Abend",
						"fr": "Veille de Noël",
						"en": "Christmas Eve"
					},
					"date": "2014-12-24",
					"hours": "08:00 - 18:00"
				},
				{
					"day": {
						"de": "Weihnachten",
						"fr": "Noël",
						"en": "Christmas"
					},
					"date": "2014-12-25",
					"hours": "00:00 - 00:00"
				},
				{
					"day": {
						"de": "Stephanstag",
						"fr": "Saint Etienne",
						"en": "St. Stephen's Day"
					},
					"date": "2014-12-26",
					"hours": "09:00 - 19:00"
				},
				{
					"day": {
						"de": "Silvester",
						"fr": "Saint-Sylvestre",
						"en": "New Year's Eve"
					},
					"date": "2014-12-31",
					"hours": "08:00 - 18:00"
				},
				{
					"day": {
						"de": "Neujahr",
						"fr": "Nouvel an",
						"en": "New Year's Day"
					},
					"date": "2015-01-01",
					"hours": "00:00 - 00:00"
				},
				{
					"day": {
						"de": "Berchtoldstag",
						"fr": "Saint Berchtold",
						"en": "Saint Berchtold"
					},
					"date": "2015-01-02",
					"hours": "00:00 - 00:00"
				}]
			}]
		},
		{
			"id": 116,
			"name": "GLOBUS Genève",
			"channelName": "Grands Magasins Globus SA",
			"address": "48, rue du Rhône",
			"zip": 1204,
			"city": "Genève",
			"phone": "+41 58 578 50 50",
			"fax": "+41 58 578 50 88",
			"longitude": 6.147402,
			"latitude": 46.204183,
			"email": "michel.bratschi@globus.ch",
			"manager": {
				"de": "Herr Michel Bratschi",
				"fr": "Monsieur Michel Bratschi",
				"en": "Mr. Michel Bratschi"
			},
			"images": [{
				"type": "Thumbnail",
				"url": "http://www.globus.ch//locations/geneve//small/small.jpg"
			},
			{
				"type": "Detail",
				"url": "http://www.globus.ch//locations/geneve//large/large.jpg"
			}],
			"shopClosed": null,
			"openingTimes": [{
				"title": {
					"de": "Filiale",
					"fr": "Succursale",
					"en": "Shop"
				},
				"days": [{
					"weekday": 1,
					"hours": "09:00 - 19:00"
				},
				{
					"weekday": 2,
					"hours": "09:00 - 19:00"
				},
				{
					"weekday": 3,
					"hours": "09:00 - 19:00"
				},
				{
					"weekday": 4,
					"hours": "09:00 - 21:00"
				},
				{
					"weekday": 5,
					"hours": "09:00 - 19:30"
				},
				{
					"weekday": 6,
					"hours": "09:00 - 18:00"
				},
				{
					"weekday": 7,
					"hours": "00:00 - 00:00"
				}]
			},
			{
				"title": {
					"de": "Food Hall / Take-away",
					"fr": "Food Hall / Take-away",
					"en": "Food Hall / Take-away"
				},
				"days": [{
					"weekday": 1,
					"hours": "07:30 - 22:00"
				},
				{
					"weekday": 2,
					"hours": "07:30 - 22:00"
				},
				{
					"weekday": 3,
					"hours": "07:30 - 22:00"
				},
				{
					"weekday": 4,
					"hours": "07:30 - 22:00"
				},
				{
					"weekday": 5,
					"hours": "07:30 - 22:00"
				},
				{
					"weekday": 6,
					"hours": "08:30 - 22:00"
				},
				{
					"weekday": 7,
					"hours": "00:00 - 00:00"
				}]
			}],
			"holidays": [{
				"days": [{
					"day": {
						"de": "Nationalfeiertag",
						"fr": "Fête nationale",
						"en": "National Holiday"
					},
					"date": "2014-08-01",
					"hours": "00:00 - 00:00"
				},
				{
					"day": {
						"de": "Erster Advent",
						"fr": "Premier Avent",
						"en": "First Advent"
					},
					"date": "2014-11-30",
					"hours": "00:00 - 00:00"
				},
				{
					"day": {
						"de": "Zweiter Advent",
						"fr": "Deuxième Avent",
						"en": "Second Advent"
					},
					"date": "2014-12-07",
					"hours": "00:00 - 00:00"
				},
				{
					"day": {
						"de": "Maria Empfängnis",
						"fr": "Immaculée Conception",
						"en": "Immaculate Conception"
					},
					"date": "2014-12-08",
					"hours": "09:00 - 19:00"
				},
				{
					"day": {
						"de": "Dritter Advent",
						"fr": "Troisième Avent",
						"en": "Third Advent"
					},
					"date": "2014-12-14",
					"hours": "00:00 - 00:00"
				},
				{
					"day": {
						"de": "Vierter Advent",
						"fr": "Quatrième Avent",
						"en": "Fourth Advent"
					},
					"date": "2014-12-21",
					"hours": "00:00 - 00:00"
				},
				{
					"day": "Vortag Heiliger Abend",
					"date": "2014-12-23",
					"hours": "09:00 - 21:30"
				},
				{
					"day": {
						"de": "Heiliger Abend",
						"fr": "Veille de Noël",
						"en": "Christmas Eve"
					},
					"date": "2014-12-24",
					"hours": "09:00 - 18:00"
				},
				{
					"day": {
						"de": "Weihnachten",
						"fr": "Noël",
						"en": "Christmas"
					},
					"date": "2014-12-25",
					"hours": "00:00 - 00:00"
				},
				{
					"day": {
						"de": "Stephanstag",
						"fr": "Saint Etienne",
						"en": "St. Stephen's Day"
					},
					"date": "2014-12-26",
					"hours": "09:00 - 21:00"
				},
				{
					"day": {
						"de": "Silvester",
						"fr": "Saint-Sylvestre",
						"en": "New Year's Eve"
					},
					"date": "2014-12-31",
					"hours": "09:00 - 19:00"
				},
				{
					"day": {
						"de": "Neujahr",
						"fr": "Nouvel an",
						"en": "New Year's Day"
					},
					"date": "2015-01-01",
					"hours": "00:00 - 00:00"
				},
				{
					"day": {
						"de": "Berchtoldstag",
						"fr": "Saint Berchtold",
						"en": "Saint Berchtold"
					},
					"date": "2015-01-02",
					"hours": "00:00 - 00:00"
				}]
			}]
		},
		{
			"id": 117,
			"name": "GLOBUS Locarno",
			"channelName": "Grandi Magazzini Globus SA",
			"address": "Largo Zorzi",
			"zip": 6600,
			"city": "Locarno",
			"phone": "+41 58 578 65 65",
			"fax": "+41 58 578 65 88",
			"longitude": 8.79865,
			"latitude": 46.16987,
			"email": "margot.roesch@globus.ch",
			"manager": {
				"de": "Frau Margot Rösch",
				"fr": "Madame Margot Rösch",
				"en": "Mrs. Margot Rösch"
			},
			"images": [{
				"type": "Thumbnail",
				"url": "http://www.globus.ch//locations/locarno//small/small.jpg"
			},
			{
				"type": "Detail",
				"url": "http://www.globus.ch//locations/locarno//large/large.jpg"
			}],
			"shopClosed": null,
			"openingTimes": [{
				"days": [{
					"weekday": 1,
					"hours": "09:00 - 18:30"
				},
				{
					"weekday": 2,
					"hours": "09:00 - 18:30"
				},
				{
					"weekday": 3,
					"hours": "09:00 - 18:30"
				},
				{
					"weekday": 4,
					"hours": "09:00 - 20:00"
				},
				{
					"weekday": 5,
					"hours": "09:00 - 18:30"
				},
				{
					"weekday": 6,
					"hours": "09:00 - 17:00"
				},
				{
					"weekday": 7,
					"hours": "00:00 - 00:00"
				}]
			}],
			"holidays": [{
				"days": [{
					"day": {
						"de": "Nationalfeiertag",
						"fr": "Fête nationale",
						"en": "National Holiday"
					},
					"date": "2014-08-01",
					"hours": "00:00 - 00:00"
				},
				{
					"day": {
						"de": "Erster Advent",
						"fr": "Premier Avent",
						"en": "First Advent"
					},
					"date": "2014-11-30",
					"hours": "00:00 - 00:00"
				},
				{
					"day": {
						"de": "Zweiter Advent",
						"fr": "Deuxième Avent",
						"en": "Second Advent"
					},
					"date": "2014-12-07",
					"hours": "10:00 - 18:00"
				},
				{
					"day": {
						"de": "Maria Empfängnis",
						"fr": "Immaculée Conception",
						"en": "Immaculate Conception"
					},
					"date": "2014-12-08",
					"hours": "10:00 - 18:00"
				},
				{
					"day": {
						"de": "Dritter Advent",
						"fr": "Troisième Avent",
						"en": "Third Advent"
					},
					"date": "2014-12-14",
					"hours": "10:00 - 18:00"
				},
				{
					"day": {
						"de": "Vierter Advent",
						"fr": "Quatrième Avent",
						"en": "Fourth Advent"
					},
					"date": "2014-12-21",
					"hours": "10:00 - 18:00"
				},
				{
					"day": {
						"de": "Heiliger Abend",
						"fr": "Veille de Noël",
						"en": "Christmas Eve"
					},
					"date": "2014-12-24",
					"hours": "09:00 - 17:00"
				},
				{
					"day": {
						"de": "Weihnachten",
						"fr": "Noël",
						"en": "Christmas"
					},
					"date": "2014-12-25",
					"hours": "00:00 - 00:00"
				},
				{
					"day": {
						"de": "Stephanstag",
						"fr": "Saint Etienne",
						"en": "St. Stephen's Day"
					},
					"date": "2014-12-26",
					"hours": "00:00 - 00:00"
				},
				{
					"day": {
						"de": "Silvester",
						"fr": "Saint-Sylvestre",
						"en": "New Year's Eve"
					},
					"date": "2014-12-31",
					"hours": "09:00 - 17:00"
				},
				{
					"day": {
						"de": "Neujahr",
						"fr": "Nouvel an",
						"en": "New Year's Day"
					},
					"date": "2015-01-01",
					"hours": "00:00 - 00:00"
				},
				{
					"day": {
						"de": "Berchtoldstag",
						"fr": "Saint Berchtold",
						"en": "Saint Berchtold"
					},
					"date": "2015-01-02",
					"hours": "09:00 - 20:00"
				}]
			}]
		},
		{
			"id": 166,
			"name": "GLOBUS Outlet Dietlikon",
			"channelName": "Magazine zum Globus AG",
			"address": "Neue Winterthurerstrasse 7",
			"zip": 8305,
			"city": "Dietlikon",
			"phone": "+41 58 578 10 10",
			"fax": "+41 58 578 10 48",
			"longitude": 8.621574,
			"latitude": 47.415998,
			"email": "peter.stauber@globus.ch",
			"manager": {
				"de": "Herr Peter Stauber",
				"fr": "Monsieur Peter Stauber",
				"en": "Mr. Peter Stauber"
			},
			"images": [{
				"type": "Thumbnail",
				"url": "http://www.globus.ch//locations/outlet-dietlikon//small/small.jpg"
			},
			{
				"type": "Detail",
				"url": "http://www.globus.ch//locations/outlet-dietlikon//large/large.jpg"
			}],
			"shopClosed": null,
			"openingTimes": [{
				"days": [{
					"weekday": 1,
					"hours": "10:00 - 20:00"
				},
				{
					"weekday": 2,
					"hours": "10:00 - 20:00"
				},
				{
					"weekday": 3,
					"hours": "10:00 - 20:00"
				},
				{
					"weekday": 4,
					"hours": "10:00 - 20:00"
				},
				{
					"weekday": 5,
					"hours": "10:00 - 20:00"
				},
				{
					"weekday": 6,
					"hours": "10:00 - 20:00"
				},
				{
					"weekday": 7,
					"hours": "00:00 - 00:00"
				}]
			}],
			"holidays": [{
				"days": [{
					"day": {
						"de": "Nationalfeiertag",
						"fr": "Fête nationale",
						"en": "National Holiday"
					},
					"date": "2014-08-01",
					"hours": "00:00 - 00:00"
				},
				{
					"day": {
						"de": "Erster Advent",
						"fr": "Premier Avent",
						"en": "First Advent"
					},
					"date": "2014-11-30",
					"hours": "00:00 - 00:00"
				},
				{
					"day": {
						"de": "Zweiter Advent",
						"fr": "Deuxième Avent",
						"en": "Second Advent"
					},
					"date": "2014-12-07",
					"hours": "10:00 - 18:00"
				},
				{
					"day": {
						"de": "Maria Empfängnis",
						"fr": "Immaculée Conception",
						"en": "Immaculate Conception"
					},
					"date": "2014-12-08",
					"hours": "10:00 - 20:00"
				},
				{
					"day": {
						"de": "Dritter Advent",
						"fr": "Troisième Avent",
						"en": "Third Advent"
					},
					"date": "2014-12-14",
					"hours": "00:00 - 00:00"
				},
				{
					"day": {
						"de": "Vierter Advent",
						"fr": "Quatrième Avent",
						"en": "Fourth Advent"
					},
					"date": "2014-12-21",
					"hours": "10:00 - 18:00"
				},
				{
					"day": {
						"de": "Heiliger Abend",
						"fr": "Veille de Noël",
						"en": "Christmas Eve"
					},
					"date": "2014-12-24",
					"hours": "08:00 - 17:00"
				},
				{
					"day": {
						"de": "Weihnachten",
						"fr": "Noël",
						"en": "Christmas"
					},
					"date": "2014-12-25",
					"hours": "00:00 - 00:00"
				},
				{
					"day": {
						"de": "Stephanstag",
						"fr": "Saint Etienne",
						"en": "St. Stephen's Day"
					},
					"date": "2014-12-26",
					"hours": "00:00 - 00:00"
				},
				{
					"day": {
						"de": "Silvester",
						"fr": "Saint-Sylvestre",
						"en": "New Year's Eve"
					},
					"date": "2014-12-31",
					"hours": "10:00 - 17:00"
				},
				{
					"day": {
						"de": "Neujahr",
						"fr": "Nouvel an",
						"en": "New Year's Day"
					},
					"date": "2015-01-01",
					"hours": "00:00 - 00:00"
				},
				{
					"day": {
						"de": "Berchtoldstag",
						"fr": "Saint Berchtold",
						"en": "Saint Berchtold"
					},
					"date": "2015-01-02",
					"hours": "10:00 - 20:00"
				}]
			}]
		},
		{
			"id": 301,
			"name": "HERREN GLOBUS Zürich",
			"channelName": "Magazine zum Globus AG",
			"address": "Löwenstrasse 37",
			"zip": 8021,
			"city": "Zürich",
			"phone": "+41 58 576 35 00",
			"fax": "+41 58 576 35 48",
			"longitude": 8.536535,
			"latitude": 47.375513,
			"email": "peter.wetli@globus.ch",
			"manager": {
				"de": "Herr Peter Wetli",
				"fr": "Monsieur Peter Wetli",
				"en": "Mr. Peter Wetli"
			},
			"images": [{
				"type": "Thumbnail",
				"url": null
			},
			{
				"type": "Detail",
				"url": "http://www.herrenglobus.ch/uploads/tx_hgws12/stores-header-zuerich.jpg"
			}],
			"shopClosed": null,
			"openingTimes": [{
				"days": [{
					"weekday": 1,
					"hours": "09:00 - 20:00"
				},
				{
					"weekday": 2,
					"hours": "09:00 - 20:00"
				},
				{
					"weekday": 3,
					"hours": "09:00 - 20:00"
				},
				{
					"weekday": 4,
					"hours": "09:00 - 20:00"
				},
				{
					"weekday": 5,
					"hours": "09:00 - 20:00"
				},
				{
					"weekday": 6,
					"hours": "09:00 - 20:00"
				},
				{
					"weekday": 7,
					"hours": "00:00 - 00:00"
				}]
			}],
			"holidays": [{
				"days": [{
					"day": {
						"de": "Nationalfeiertag",
						"fr": "Fête nationale",
						"en": "National Holiday"
					},
					"date": "2014-08-01",
					"hours": "00:00 - 00:00"
				},
				{
					"day": {
						"de": "Erster Advent",
						"fr": "Premier Avent",
						"en": "First Advent"
					},
					"date": "2014-11-30",
					"hours": "11:00 - 18:00"
				},
				{
					"day": {
						"de": "Zweiter Advent",
						"fr": "Deuxième Avent",
						"en": "Second Advent"
					},
					"date": "2014-12-07",
					"hours": "11:00 - 18:00"
				},
				{
					"day": {
						"de": "Maria Empfängnis",
						"fr": "Immaculée Conception",
						"en": "Immaculate Conception"
					},
					"date": "2014-12-08",
					"hours": "09:00 - 20:00"
				},
				{
					"day": {
						"de": "Dritter Advent",
						"fr": "Troisième Avent",
						"en": "Third Advent"
					},
					"date": "2014-12-14",
					"hours": "00:00 - 00:00"
				},
				{
					"day": {
						"de": "Vierter Advent",
						"fr": "Quatrième Avent",
						"en": "Fourth Advent"
					},
					"date": "2014-12-21",
					"hours": "11:00 - 18:00"
				},
				{
					"day": {
						"de": "Heiliger Abend",
						"fr": "Veille de Noël",
						"en": "Christmas Eve"
					},
					"date": "2014-12-24",
					"hours": "09:00 - 17:00"
				},
				{
					"day": {
						"de": "Weihnachten",
						"fr": "Noël",
						"en": "Christmas"
					},
					"date": "2014-12-25",
					"hours": "00:00 - 00:00"
				},
				{
					"day": {
						"de": "Stephanstag",
						"fr": "Saint Etienne",
						"en": "St. Stephen's Day"
					},
					"date": "2014-12-26",
					"hours": "00:00 - 00:00"
				},
				{
					"day": {
						"de": "Silvester",
						"fr": "Saint-Sylvestre",
						"en": "New Year's Eve"
					},
					"date": "2014-12-31",
					"hours": "09:00 - 17:00"
				},
				{
					"day": {
						"de": "Neujahr",
						"fr": "Nouvel an",
						"en": "New Year's Day"
					},
					"date": "2015-01-01",
					"hours": "00:00 - 00:00"
				},
				{
					"day": {
						"de": "Berchtoldstag",
						"fr": "Saint Berchtold",
						"en": "Saint Berchtold"
					},
					"date": "2015-01-02",
					"hours": "09:00 - 20:00"
				}]
			}]
		},
		{
			"id": 302,
			"name": "HERREN GLOBUS Basel",
			"channelName": "Magazine zum Globus AG",
			"address": "Freie Strasse 50 ",
			"zip": 4001,
			"city": "Basel",
			"phone": "+41 58 576 35 50",
			"fax": "+41 58 576 35 88",
			"longitude": 7.590209,
			"latitude": 47.555887,
			"email": "andreas.mueller@globus.ch",
			"manager": {
				"de": "Herr Andreas Müller",
				"fr": "Monsieur Andreas Müller",
				"en": "Mr. Andreas Müller"
			},
			"images": [{
				"type": "Thumbnail",
				"url": null
			},
			{
				"type": "Detail",
				"url": "http://www.herrenglobus.ch/uploads/tx_hgws12/stores-header-basel.jpg"
			}],
			"shopClosed": null,
			"openingTimes": [{
				"days": [{
					"weekday": 1,
					"hours": "09:00 - 18:30"
				},
				{
					"weekday": 2,
					"hours": "09:00 - 18:30"
				},
				{
					"weekday": 3,
					"hours": "09:00 - 18:30"
				},
				{
					"weekday": 4,
					"hours": "09:00 - 20:00"
				},
				{
					"weekday": 5,
					"hours": "09:00 - 20:00"
				},
				{
					"weekday": 6,
					"hours": "09:00 - 18:00"
				},
				{
					"weekday": 7,
					"hours": "00:00 - 00:00"
				}]
			}],
			"holidays": [{
				"days": [{
					"day": {
						"de": "Nationalfeiertag",
						"fr": "Fête nationale",
						"en": "National Holiday"
					},
					"date": "2014-08-01",
					"hours": "00:00 - 00:00"
				},
				{
					"day": {
						"de": "Erster Advent",
						"fr": "Premier Avent",
						"en": "First Advent"
					},
					"date": "2014-11-30",
					"hours": "00:00 - 00:00"
				},
				{
					"day": {
						"de": "Zweiter Advent",
						"fr": "Deuxième Avent",
						"en": "Second Advent"
					},
					"date": "2014-12-07",
					"hours": "00:00 - 00:00"
				},
				{
					"day": {
						"de": "Maria Empfängnis",
						"fr": "Immaculée Conception",
						"en": "Immaculate Conception"
					},
					"date": "2014-12-08",
					"hours": "09:00 - 18:30"
				},
				{
					"day": {
						"de": "Dritter Advent",
						"fr": "Troisième Avent",
						"en": "Third Advent"
					},
					"date": "2014-12-14",
					"hours": "13:00 - 18:00"
				},
				{
					"day": {
						"de": "Vierter Advent",
						"fr": "Quatrième Avent",
						"en": "Fourth Advent"
					},
					"date": "2014-12-21",
					"hours": "13:00 - 18:00"
				},
				{
					"day": {
						"de": "Heiliger Abend",
						"fr": "Veille de Noël",
						"en": "Christmas Eve"
					},
					"date": "2014-12-24",
					"hours": "09:00 - 17:00"
				},
				{
					"day": {
						"de": "Weihnachten",
						"fr": "Noël",
						"en": "Christmas"
					},
					"date": "2014-12-25",
					"hours": "00:00 - 00:00"
				},
				{
					"day": {
						"de": "Stephanstag",
						"fr": "Saint Etienne",
						"en": "St. Stephen's Day"
					},
					"date": "2014-12-26",
					"hours": "00:00 - 00:00"
				},
				{
					"day": {
						"de": "Silvester",
						"fr": "Saint-Sylvestre",
						"en": "New Year's Eve"
					},
					"date": "2014-12-31",
					"hours": "09:00 - 17:00"
				},
				{
					"day": {
						"de": "Neujahr",
						"fr": "Nouvel an",
						"en": "New Year's Day"
					},
					"date": "2015-01-01",
					"hours": "00:00 - 00:00"
				},
				{
					"day": {
						"de": "Berchtoldstag",
						"fr": "Saint Berchtold",
						"en": "Saint Berchtold"
					},
					"date": "2015-01-02",
					"hours": "09:00 - 20:00"
				}]
			}]
		},
		{
			"id": 303,
			"name": "HERREN GLOBUS Schaffhausen",
			"channelName": "Magazine zum Globus AG",
			"address": "Fronwagplatz 18",
			"zip": 8200,
			"city": "Schaffhausen",
			"phone": "+41 58 576 36 00",
			"fax": "+41 58 576 36 48",
			"longitude": 8.633657,
			"latitude": 47.696959,
			"email": "stephan.fueglister@globus.ch",
			"manager": {
				"de": "Herr Stephan Fueglister",
				"fr": "Monsieur Stephan Fueglister",
				"en": "Mr. Stephan Fueglister"
			},
			"images": [{
				"type": "Thumbnail",
				"url": null
			},
			{
				"type": "Detail",
				"url": "http://www.herrenglobus.ch/uploads/tx_hgws12/stores-header-schaffhausen.jpg"
			}],
			"shopClosed": null,
			"openingTimes": [{
				"days": [{
					"weekday": 1,
					"hours": "09:00 - 18:30"
				},
				{
					"weekday": 2,
					"hours": "09:00 - 18:30"
				},
				{
					"weekday": 3,
					"hours": "09:00 - 18:30"
				},
				{
					"weekday": 4,
					"hours": "09:00 - 20:00"
				},
				{
					"weekday": 5,
					"hours": "09:00 - 18:30"
				},
				{
					"weekday": 6,
					"hours": "09:00 - 17:00"
				},
				{
					"weekday": 7,
					"hours": "00:00 - 00:00"
				}]
			}],
			"holidays": [{
				"days": [{
					"day": {
						"de": "Nationalfeiertag",
						"fr": "Fête nationale",
						"en": "National Holiday"
					},
					"date": "2014-08-01",
					"hours": "00:00 - 00:00"
				},
				{
					"day": {
						"de": "Erster Advent",
						"fr": "Premier Avent",
						"en": "First Advent"
					},
					"date": "2014-11-30",
					"hours": "00:00 - 00:00"
				},
				{
					"day": {
						"de": "Zweiter Advent",
						"fr": "Deuxième Avent",
						"en": "Second Advent"
					},
					"date": "2014-12-07",
					"hours": "00:00 - 00:00"
				},
				{
					"day": {
						"de": "Maria Empfängnis",
						"fr": "Immaculée Conception",
						"en": "Immaculate Conception"
					},
					"date": "2014-12-08",
					"hours": "09:00 - 18:30"
				},
				{
					"day": {
						"de": "Dritter Advent",
						"fr": "Troisième Avent",
						"en": "Third Advent"
					},
					"date": "2014-12-14",
					"hours": "13:00 - 18:00"
				},
				{
					"day": {
						"de": "Vierter Advent",
						"fr": "Quatrième Avent",
						"en": "Fourth Advent"
					},
					"date": "2014-12-21",
					"hours": "13:00 - 18:00"
				},
				{
					"day": {
						"de": "Heiliger Abend",
						"fr": "Veille de Noël",
						"en": "Christmas Eve"
					},
					"date": "2014-12-24",
					"hours": "09:00 - 17:00"
				},
				{
					"day": {
						"de": "Weihnachten",
						"fr": "Noël",
						"en": "Christmas"
					},
					"date": "2014-12-25",
					"hours": "00:00 - 00:00"
				},
				{
					"day": {
						"de": "Stephanstag",
						"fr": "Saint Etienne",
						"en": "St. Stephen's Day"
					},
					"date": "2014-12-26",
					"hours": "00:00 - 00:00"
				},
				{
					"day": {
						"de": "Silvester",
						"fr": "Saint-Sylvestre",
						"en": "New Year's Eve"
					},
					"date": "2014-12-31",
					"hours": "09:00 - 17:00"
				},
				{
					"day": {
						"de": "Neujahr",
						"fr": "Nouvel an",
						"en": "New Year's Day"
					},
					"date": "2015-01-01",
					"hours": "00:00 - 00:00"
				},
				{
					"day": {
						"de": "Berchtoldstag",
						"fr": "Saint Berchtold",
						"en": "Saint Berchtold"
					},
					"date": "2015-01-02",
					"hours": "09:00 - 20:00"
				}]
			}]
		},
		{
			"id": 304,
			"name": "HERREN GLOBUS Aarau",
			"channelName": "Magazine zum Globus AG",
			"address": "Kasinostrasse 30",
			"zip": 5000,
			"city": "Aarau",
			"phone": "+41 58 576 36 50",
			"fax": "+41 58 576 36 88",
			"longitude": 8.046743,
			"latitude": 47.391946,
			"email": "kurt.steinmann@globus.ch",
			"manager": {
				"de": "Herr Kurt Steinmann",
				"fr": "Monsieur Kurt Steinmann",
				"en": "Mr. Kurt Steinmann"
			},
			"images": [{
				"type": "Thumbnail",
				"url": null
			},
			{
				"type": "Detail",
				"url": "http://www.herrenglobus.ch/uploads/tx_hgws12/stores-header-aarau.jpg"
			}],
			"shopClosed": null,
			"openingTimes": [{
				"days": [{
					"weekday": 1,
					"hours": "09:00 - 18:30"
				},
				{
					"weekday": 2,
					"hours": "09:00 - 18:30"
				},
				{
					"weekday": 3,
					"hours": "09:00 - 18:30"
				},
				{
					"weekday": 4,
					"hours": "09:00 - 20:00"
				},
				{
					"weekday": 5,
					"hours": "09:00 - 18:30"
				},
				{
					"weekday": 6,
					"hours": "08:30 - 17:00"
				},
				{
					"weekday": 7,
					"hours": "00:00 - 00:00"
				}]
			}],
			"holidays": [{
				"days": [{
					"day": {
						"de": "Nationalfeiertag",
						"fr": "Fête nationale",
						"en": "National Holiday"
					},
					"date": "2014-08-01",
					"hours": "00:00 - 00:00"
				},
				{
					"day": {
						"de": "Erster Advent",
						"fr": "Premier Avent",
						"en": "First Advent"
					},
					"date": "2014-11-30",
					"hours": "00:00 - 00:00"
				},
				{
					"day": {
						"de": "Zweiter Advent",
						"fr": "Deuxième Avent",
						"en": "Second Advent"
					},
					"date": "2014-12-07",
					"hours": "00:00 - 00:00"
				},
				{
					"day": {
						"de": "Maria Empfängnis",
						"fr": "Immaculée Conception",
						"en": "Immaculate Conception"
					},
					"date": "2014-12-08",
					"hours": "09:00 - 18:30"
				},
				{
					"day": {
						"de": "Dritter Advent",
						"fr": "Troisième Avent",
						"en": "Third Advent"
					},
					"date": "2014-12-14",
					"hours": "00:00 - 00:00"
				},
				{
					"day": {
						"de": "Vierter Advent",
						"fr": "Quatrième Avent",
						"en": "Fourth Advent"
					},
					"date": "2014-12-21",
					"hours": "11:00 - 17:00"
				},
				{
					"day": {
						"de": "Heiliger Abend",
						"fr": "Veille de Noël",
						"en": "Christmas Eve"
					},
					"date": "2014-12-24",
					"hours": "09:00 - 18:30"
				},
				{
					"day": {
						"de": "Weihnachten",
						"fr": "Noël",
						"en": "Christmas"
					},
					"date": "2014-12-25",
					"hours": "00:00 - 00:00"
				},
				{
					"day": {
						"de": "Stephanstag",
						"fr": "Saint Etienne",
						"en": "St. Stephen's Day"
					},
					"date": "2014-12-26",
					"hours": "00:00 - 00:00"
				},
				{
					"day": {
						"de": "Silvester",
						"fr": "Saint-Sylvestre",
						"en": "New Year's Eve"
					},
					"date": "2014-12-31",
					"hours": "09:00 - 18:30"
				},
				{
					"day": {
						"de": "Neujahr",
						"fr": "Nouvel an",
						"en": "New Year's Day"
					},
					"date": "2015-01-01",
					"hours": "00:00 - 00:00"
				},
				{
					"day": {
						"de": "Berchtoldstag",
						"fr": "Saint Berchtold",
						"en": "Saint Berchtold"
					},
					"date": "2015-01-02",
					"hours": "00:00 - 00:00"
				}]
			}]
		},
		{
			"id": 305,
			"name": "HERREN GLOBUS Zug",
			"channelName": "Magazine zum Globus AG",
			"address": "Bahnhofstrasse 28",
			"zip": 6301,
			"city": "Zug",
			"phone": "+41 58 576 37 00",
			"fax": "+41 58 576 37 48",
			"longitude": 8.516164,
			"latitude": 47.170051,
			"email": "beat.knobel@globus.ch",
			"manager": {
				"de": "Herr Beat Knobel",
				"fr": "Monsieur Beat Knobel",
				"en": "Mr. Beat Knobel"
			},
			"images": [{
				"type": "Thumbnail",
				"url": null
			},
			{
				"type": "Detail",
				"url": "http://www.herrenglobus.ch/uploads/tx_hgws12/stores-header-zug.jpg"
			}],
			"shopClosed": null,
			"openingTimes": [{
				"days": [{
					"weekday": 1,
					"hours": "09:00 - 18:30"
				},
				{
					"weekday": 2,
					"hours": "09:00 - 18:30"
				},
				{
					"weekday": 3,
					"hours": "09:00 - 18:30"
				},
				{
					"weekday": 4,
					"hours": "09:00 - 20:00"
				},
				{
					"weekday": 5,
					"hours": "09:00 - 18:30"
				},
				{
					"weekday": 6,
					"hours": "09:00 - 17:00"
				},
				{
					"weekday": 7,
					"hours": "00:00 - 00:00"
				}]
			}],
			"holidays": [{
				"days": [{
					"day": {
						"de": "Nationalfeiertag",
						"fr": "Fête nationale",
						"en": "National Holiday"
					},
					"date": "2014-08-01",
					"hours": "00:00 - 00:00"
				},
				{
					"day": {
						"de": "Erster Advent",
						"fr": "Premier Avent",
						"en": "First Advent"
					},
					"date": "2014-11-30",
					"hours": "00:00 - 00:00"
				},
				{
					"day": {
						"de": "Zweiter Advent",
						"fr": "Deuxième Avent",
						"en": "Second Advent"
					},
					"date": "2014-12-07",
					"hours": "00:00 - 00:00"
				},
				{
					"day": {
						"de": "Maria Empfängnis",
						"fr": "Immaculée Conception",
						"en": "Immaculate Conception"
					},
					"date": "2014-12-08",
					"hours": "09:00 - 18:30"
				},
				{
					"day": {
						"de": "Dritter Advent",
						"fr": "Troisième Avent",
						"en": "Third Advent"
					},
					"date": "2014-12-14",
					"hours": "11:00 - 17:00"
				},
				{
					"day": {
						"de": "Vierter Advent",
						"fr": "Quatrième Avent",
						"en": "Fourth Advent"
					},
					"date": "2014-12-21",
					"hours": "11:00 - 17:00"
				},
				{
					"day": {
						"de": "Heiliger Abend",
						"fr": "Veille de Noël",
						"en": "Christmas Eve"
					},
					"date": "2014-12-24",
					"hours": "09:00 - 16:00"
				},
				{
					"day": {
						"de": "Weihnachten",
						"fr": "Noël",
						"en": "Christmas"
					},
					"date": "2014-12-25",
					"hours": "00:00 - 00:00"
				},
				{
					"day": {
						"de": "Stephanstag",
						"fr": "Saint Etienne",
						"en": "St. Stephen's Day"
					},
					"date": "2014-12-26",
					"hours": "00:00 - 00:00"
				},
				{
					"day": {
						"de": "Silvester",
						"fr": "Saint-Sylvestre",
						"en": "New Year's Eve"
					},
					"date": "2014-12-31",
					"hours": "09:00 - 16:00"
				},
				{
					"day": {
						"de": "Neujahr",
						"fr": "Nouvel an",
						"en": "New Year's Day"
					},
					"date": "2015-01-01",
					"hours": "00:00 - 00:00"
				},
				{
					"day": {
						"de": "Berchtoldstag",
						"fr": "Saint Berchtold",
						"en": "Saint Berchtold"
					},
					"date": "2015-01-02",
					"hours": "09:00 - 20:00"
				}]
			}]
		},
		{
			"id": 306,
			"name": "HERREN GLOBUS Bern",
			"channelName": "Magazine zum Globus AG",
			"address": "Spitalgasse 3",
			"zip": 3011,
			"city": "Bern",
			"phone": "+41 58 576 37 50",
			"fax": "+41 58 576 37 88",
			"longitude": 7.443161,
			"latitude": 46.94809,
			"email": "roland.kuratle@globus.ch",
			"manager": {
				"de": "Herr Roland Kuratle",
				"fr": "Monsieur Roland Kuratle",
				"en": "Mr. Roland Kuratle"
			},
			"images": [{
				"type": "Thumbnail",
				"url": null
			},
			{
				"type": "Detail",
				"url": "http://www.herrenglobus.ch/uploads/tx_hgws12/stores-header-bern.jpg"
			}],
			"shopClosed": null,
			"openingTimes": [{
				"days": [{
					"weekday": 1,
					"hours": "09:00 - 19:00"
				},
				{
					"weekday": 2,
					"hours": "09:00 - 19:00"
				},
				{
					"weekday": 3,
					"hours": "09:00 - 19:00"
				},
				{
					"weekday": 4,
					"hours": "09:00 - 21:00"
				},
				{
					"weekday": 5,
					"hours": "09:00 - 19:00"
				},
				{
					"weekday": 6,
					"hours": "08:30 - 17:00"
				},
				{
					"weekday": 7,
					"hours": "00:00 - 00:00"
				}]
			}],
			"holidays": [{
				"days": [{
					"day": {
						"de": "Nationalfeiertag",
						"fr": "Fête nationale",
						"en": "National Holiday"
					},
					"date": "2014-08-01",
					"hours": "00:00 - 00:00"
				},
				{
					"day": {
						"de": "Zibelemärit",
						"fr": "Foire aux oignons",
						"en": "Onion Market"
					},
					"date": "2014-11-24",
					"hours": "09:00 - 17:00"
				},
				{
					"day": {
						"de": "Erster Advent",
						"fr": "Premier Avent",
						"en": "First Advent"
					},
					"date": "2014-11-30",
					"hours": "00:00 - 00:00"
				},
				{
					"day": {
						"de": "Zweiter Advent",
						"fr": "Deuxième Avent",
						"en": "Second Advent"
					},
					"date": "2014-12-07",
					"hours": "00:00 - 00:00"
				},
				{
					"day": {
						"de": "Maria Empfängnis",
						"fr": "Immaculée Conception",
						"en": "Immaculate Conception"
					},
					"date": "2014-12-08",
					"hours": "09:00 - 19:00"
				},
				{
					"day": {
						"de": "Dritter Advent",
						"fr": "Troisième Avent",
						"en": "Third Advent"
					},
					"date": "2014-12-14",
					"hours": "10:00 - 18:00"
				},
				{
					"day": {
						"de": "Vierter Advent",
						"fr": "Quatrième Avent",
						"en": "Fourth Advent"
					},
					"date": "2014-12-21",
					"hours": "10:00 - 18:00"
				},
				{
					"day": {
						"de": "Heiliger Abend",
						"fr": "Veille de Noël",
						"en": "Christmas Eve"
					},
					"date": "2014-12-24",
					"hours": "09:00 - 19:00"
				},
				{
					"day": {
						"de": "Weihnachten",
						"fr": "Noël",
						"en": "Christmas"
					},
					"date": "2014-12-25",
					"hours": "00:00 - 00:00"
				},
				{
					"day": {
						"de": "Stephanstag",
						"fr": "Saint Etienne",
						"en": "St. Stephen's Day"
					},
					"date": "2014-12-26",
					"hours": "00:00 - 00:00"
				},
				{
					"day": {
						"de": "Silvester",
						"fr": "Saint-Sylvestre",
						"en": "New Year's Eve"
					},
					"date": "2014-12-31",
					"hours": "09:00 - 17:00"
				},
				{
					"day": {
						"de": "Neujahr",
						"fr": "Nouvel an",
						"en": "New Year's Day"
					},
					"date": "2015-01-01",
					"hours": "00:00 - 00:00"
				},
				{
					"day": {
						"de": "Berchtoldstag",
						"fr": "Saint Berchtold",
						"en": "Saint Berchtold"
					},
					"date": "2015-01-02",
					"hours": "00:00 - 00:00"
				}]
			}]
		},
		{
			"id": 308,
			"name": "HERREN GLOBUS St. Gallen",
			"channelName": "Magazine zum Globus AG",
			"address": "Webergasse 5",
			"zip": 9000,
			"city": "St. Gallen",
			"phone": "+41 58 576 38 50",
			"fax": "+41 58 576 38 88",
			"longitude": 9.374897,
			"latitude": 47.423446,
			"email": "walter.brun@globus.ch",
			"manager": {
				"de": "Herr Walter Brun",
				"fr": "Monsieur Walter Brun",
				"en": "Mr. Walter Brun"
			},
			"images": [{
				"type": "Thumbnail",
				"url": null
			},
			{
				"type": "Detail",
				"url": "http://www.herrenglobus.ch/uploads/tx_hgws12/St.Gallen_preview.jpg"
			}],
			"shopClosed": null,
			"openingTimes": [{
				"days": [{
					"weekday": 1,
					"hours": "09:00 - 19:00"
				},
				{
					"weekday": 2,
					"hours": "09:00 - 19:00"
				},
				{
					"weekday": 3,
					"hours": "09:00 - 19:00"
				},
				{
					"weekday": 4,
					"hours": "09:00 - 21:00"
				},
				{
					"weekday": 5,
					"hours": "09:00 - 19:00"
				},
				{
					"weekday": 6,
					"hours": "09:00 - 17:00"
				},
				{
					"weekday": 7,
					"hours": "00:00 - 00:00"
				}]
			}],
			"holidays": [{
				"days": [{
					"day": {
						"de": "Nationalfeiertag",
						"fr": "Fête nationale",
						"en": "National Holiday"
					},
					"date": "2014-08-01",
					"hours": "00:00 - 00:00"
				},
				{
					"day": {
						"de": "Abendverkauf",
						"fr": "Nocturne",
						"en": "Late-night shopping"
					},
					"date": "2014-11-27",
					"hours": "09:00 - 22:00"
				},
				{
					"day": {
						"de": "Erster Advent",
						"fr": "Premier Avent",
						"en": "First Advent"
					},
					"date": "2014-11-30",
					"hours": "00:00 - 00:00"
				},
				{
					"day": {
						"de": "Zweiter Advent",
						"fr": "Deuxième Avent",
						"en": "Second Advent"
					},
					"date": "2014-12-07",
					"hours": "00:00 - 00:00"
				},
				{
					"day": {
						"de": "Maria Empfängnis",
						"fr": "Immaculée Conception",
						"en": "Immaculate Conception"
					},
					"date": "2014-12-08",
					"hours": "09:00 - 19:00"
				},
				{
					"day": {
						"de": "Dritter Advent",
						"fr": "Troisième Avent",
						"en": "Third Advent"
					},
					"date": "2014-12-14",
					"hours": "12:00 - 17:00"
				},
				{
					"day": {
						"de": "Vierter Advent",
						"fr": "Quatrième Avent",
						"en": "Fourth Advent"
					},
					"date": "2014-12-21",
					"hours": "12:00 - 17:00"
				},
				{
					"day": {
						"de": "Heiliger Abend",
						"fr": "Veille de Noël",
						"en": "Christmas Eve"
					},
					"date": "2014-12-24",
					"hours": "09:00 - 16:00"
				},
				{
					"day": {
						"de": "Weihnachten",
						"fr": "Noël",
						"en": "Christmas"
					},
					"date": "2014-12-25",
					"hours": "00:00 - 00:00"
				},
				{
					"day": {
						"de": "Stephanstag",
						"fr": "Saint Etienne",
						"en": "St. Stephen's Day"
					},
					"date": "2014-12-26",
					"hours": "00:00 - 00:00"
				},
				{
					"day": {
						"de": "Silvester",
						"fr": "Saint-Sylvestre",
						"en": "New Year's Eve"
					},
					"date": "2014-12-31",
					"hours": "09:00 - 16:00"
				},
				{
					"day": {
						"de": "Neujahr",
						"fr": "Nouvel an",
						"en": "New Year's Day"
					},
					"date": "2015-01-01",
					"hours": "00:00 - 00:00"
				},
				{
					"day": {
						"de": "Berchtoldstag",
						"fr": "Saint Berchtold",
						"en": "Saint Berchtold"
					},
					"date": "2015-01-02",
					"hours": "09:00 - 21:00"
				}]
			}]
		},
		{
			"id": 309,
			"name": "GLOBUS HOMMES Fribourg",
			"channelName": "Grands Magasins Globus SA",
			"address": "18, Rue de Romont ",
			"zip": 1700,
			"city": "Fribourg",
			"phone": "+41 58 576 39 00",
			"fax": "+41 58 576 39 48",
			"longitude": 7.154626,
			"latitude": 46.804544,
			"email": "ulrich.staehli@globus.ch",
			"manager": {
				"de": "Herr Ulrich Stähli",
				"fr": "Monsieur Ulrich Stähli",
				"en": "Mr. Ulrich Stähli"
			},
			"images": [{
				"type": "Thumbnail",
				"url": null
			},
			{
				"type": "Detail",
				"url": "http://www.herrenglobus.ch/uploads/tx_hgws12/Fribourg_preview.jpg"
			}],
			"shopClosed": null,
			"openingTimes": [{
				"days": [{
					"weekday": 1,
					"hours": "09:00 - 18:30"
				},
				{
					"weekday": 2,
					"hours": "09:00 - 18:30"
				},
				{
					"weekday": 3,
					"hours": "09:00 - 18:30"
				},
				{
					"weekday": 4,
					"hours": "09:00 - 20:00"
				},
				{
					"weekday": 5,
					"hours": "09:00 - 18:30"
				},
				{
					"weekday": 6,
					"hours": "09:00 - 16:00"
				},
				{
					"weekday": 7,
					"hours": "00:00 - 00:00"
				}]
			}],
			"holidays": [{
				"days": [{
					"day": {
						"de": "Nationalfeiertag",
						"fr": "Fête nationale",
						"en": "National Holiday"
					},
					"date": "2014-08-01",
					"hours": "00:00 - 00:00"
				},
				{
					"day": {
						"de": "Erster Advent",
						"fr": "Premier Avent",
						"en": "First Advent"
					},
					"date": "2014-11-30",
					"hours": "00:00 - 00:00"
				},
				{
					"day": {
						"de": "Zweiter Advent",
						"fr": "Deuxième Avent",
						"en": "Second Advent"
					},
					"date": "2014-12-07",
					"hours": "00:00 - 00:00"
				},
				{
					"day": {
						"de": "Maria Empfängnis",
						"fr": "Immaculée Conception",
						"en": "Immaculate Conception"
					},
					"date": "2014-12-08",
					"hours": "09:00 - 18:30"
				},
				{
					"day": {
						"de": "Dritter Advent",
						"fr": "Troisième Avent",
						"en": "Third Advent"
					},
					"date": "2014-12-14",
					"hours": "00:00 - 00:00"
				},
				{
					"day": {
						"de": "Vierter Advent",
						"fr": "Quatrième Avent",
						"en": "Fourth Advent"
					},
					"date": "2014-12-21",
					"hours": "00:00 - 00:00"
				},
				{
					"day": {
						"de": "Heiliger Abend",
						"fr": "Veille de Noël",
						"en": "Christmas Eve"
					},
					"date": "2014-12-24",
					"hours": "09:00 - 16:00"
				},
				{
					"day": {
						"de": "Weihnachten",
						"fr": "Noël",
						"en": "Christmas"
					},
					"date": "2014-12-25",
					"hours": "00:00 - 00:00"
				},
				{
					"day": {
						"de": "Stephanstag",
						"fr": "Saint Etienne",
						"en": "St. Stephen's Day"
					},
					"date": "2014-12-26",
					"hours": "09:00 - 20:00"
				},
				{
					"day": {
						"de": "Silvester",
						"fr": "Saint-Sylvestre",
						"en": "New Year's Eve"
					},
					"date": "2014-12-31",
					"hours": "09:00 - 17:00"
				},
				{
					"day": {
						"de": "Neujahr",
						"fr": "Nouvel an",
						"en": "New Year's Day"
					},
					"date": "2015-01-01",
					"hours": "00:00 - 00:00"
				},
				{
					"day": {
						"de": "Berchtoldstag",
						"fr": "Saint Berchtold",
						"en": "Saint Berchtold"
					},
					"date": "2015-01-02",
					"hours": "09:00 - 20:00"
				}]
			}]
		},
		{
			"id": 310,
			"name": "HERREN GLOBUS Pfäffikon",
			"channelName": "Magazine zum Globus AG",
			"address": "Seedamm-Center",
			"zip": 8808,
			"city": "Pfäffikon",
			"phone": "+41 58 576 39 50",
			"fax": "+41 58 576 39 88",
			"longitude": 8.793684,
			"latitude": 47.200846,
			"email": "calogero.testagrossa@globus.ch",
			"manager": {
				"de": "Herr Calogero Testagrossa",
				"fr": "Monsieur Calogero Testagrossa",
				"en": "Mr. Calogero Testagrossa"
			},
			"images": [{
				"type": "Thumbnail",
				"url": null
			},
			{
				"type": "Detail",
				"url": "http://www.herrenglobus.ch/uploads/tx_hgws12/stores-header-pfaeffikon.jpg"
			}],
			"shopClosed": null,
			"openingTimes": [{
				"days": [{
					"weekday": 1,
					"hours": "09:00 - 21:00"
				},
				{
					"weekday": 2,
					"hours": "09:00 - 21:00"
				},
				{
					"weekday": 3,
					"hours": "09:00 - 21:00"
				},
				{
					"weekday": 4,
					"hours": "09:00 - 21:00"
				},
				{
					"weekday": 5,
					"hours": "09:00 - 21:00"
				},
				{
					"weekday": 6,
					"hours": "08:00 - 18:00"
				},
				{
					"weekday": 7,
					"hours": "00:00 - 00:00"
				}]
			}],
			"holidays": [{
				"days": [{
					"day": {
						"de": "Nationalfeiertag",
						"fr": "Fête nationale",
						"en": "National Holiday"
					},
					"date": "2014-08-01",
					"hours": "00:00 - 00:00"
				},
				{
					"day": {
						"de": "Abendverkauf",
						"fr": "Nocturne",
						"en": "Late-night shopping"
					},
					"date": "2014-11-27",
					"hours": "09:00 - 23:00"
				},
				{
					"day": {
						"de": "Erster Advent",
						"fr": "Premier Avent",
						"en": "First Advent"
					},
					"date": "2014-11-30",
					"hours": "10:00 - 18:00"
				},
				{
					"day": {
						"de": "Zweiter Advent",
						"fr": "Deuxième Avent",
						"en": "Second Advent"
					},
					"date": "2014-12-07",
					"hours": "10:00 - 18:00"
				},
				{
					"day": {
						"de": "Maria Empfängnis",
						"fr": "Immaculée Conception",
						"en": "Immaculate Conception"
					},
					"date": "2014-12-08",
					"hours": "09:00 - 21:00"
				},
				{
					"day": {
						"de": "Dritter Advent",
						"fr": "Troisième Avent",
						"en": "Third Advent"
					},
					"date": "2014-12-14",
					"hours": "10:00 - 18:00"
				},
				{
					"day": {
						"de": "Vierter Advent",
						"fr": "Quatrième Avent",
						"en": "Fourth Advent"
					},
					"date": "2014-12-21",
					"hours": "10:00 - 18:00"
				},
				{
					"day": {
						"de": "Heiliger Abend",
						"fr": "Veille de Noël",
						"en": "Christmas Eve"
					},
					"date": "2014-12-24",
					"hours": "08:00 - 17:00"
				},
				{
					"day": {
						"de": "Weihnachten",
						"fr": "Noël",
						"en": "Christmas"
					},
					"date": "2014-12-25",
					"hours": "00:00 - 00:00"
				},
				{
					"day": {
						"de": "Stephanstag",
						"fr": "Saint Etienne",
						"en": "St. Stephen's Day"
					},
					"date": "2014-12-26",
					"hours": "00:00 - 00:00"
				},
				{
					"day": {
						"de": "Silvester",
						"fr": "Saint-Sylvestre",
						"en": "New Year's Eve"
					},
					"date": "2014-12-31",
					"hours": "08:00 - 17:00"
				},
				{
					"day": {
						"de": "Neujahr",
						"fr": "Nouvel an",
						"en": "New Year's Day"
					},
					"date": "2015-01-01",
					"hours": "00:00 - 00:00"
				},
				{
					"day": {
						"de": "Berchtoldstag",
						"fr": "Saint Berchtold",
						"en": "Saint Berchtold"
					},
					"date": "2015-01-02",
					"hours": "09:00 - 21:00"
				}]
			}]
		},
		{
			"id": 311,
			"name": "HERREN GLOBUS Glattzentrum",
			"channelName": "Magazine zum Globus AG",
			"address": "Neue Winterthurerstr. 99",
			"zip": 8301,
			"city": "Glattzentrum",
			"phone": "+41 58 576 40 00",
			"fax": "+41 58 576 40 48",
			"longitude": 8.59574,
			"latitude": 47.409109,
			"email": "christoph.hubacher@globus.ch",
			"manager": {
				"de": "Herr Christoph Hubacher",
				"fr": "Monsieur Christoph Hubacher",
				"en": "Mr. Christoph Hubacher"
			},
			"images": [{
				"type": "Thumbnail",
				"url": null
			},
			{
				"type": "Detail",
				"url": "http://www.herrenglobus.ch/uploads/tx_hgws12/stores-header-glattzentrum.jpg"
			}],
			"shopClosed": null,
			"openingTimes": [{
				"days": [{
					"weekday": 1,
					"hours": "09:00 - 20:00"
				},
				{
					"weekday": 2,
					"hours": "09:00 - 20:00"
				},
				{
					"weekday": 3,
					"hours": "09:00 - 20:00"
				},
				{
					"weekday": 4,
					"hours": "09:00 - 20:00"
				},
				{
					"weekday": 5,
					"hours": "09:00 - 20:00"
				},
				{
					"weekday": 6,
					"hours": "09:00 - 20:00"
				},
				{
					"weekday": 7,
					"hours": "00:00 - 00:00"
				}]
			}],
			"holidays": [{
				"days": [{
					"day": {
						"de": "Nationalfeiertag",
						"fr": "Fête nationale",
						"en": "National Holiday"
					},
					"date": "2014-08-01",
					"hours": "00:00 - 00:00"
				},
				{
					"day": {
						"de": "Erster Advent",
						"fr": "Premier Avent",
						"en": "First Advent"
					},
					"date": "2014-11-30",
					"hours": "10:00 - 18:00"
				},
				{
					"day": {
						"de": "Zweiter Advent",
						"fr": "Deuxième Avent",
						"en": "Second Advent"
					},
					"date": "2014-12-07",
					"hours": "10:00 - 18:00"
				},
				{
					"day": {
						"de": "Maria Empfängnis",
						"fr": "Immaculée Conception",
						"en": "Immaculate Conception"
					},
					"date": "2014-12-08",
					"hours": "09:00 - 20:00"
				},
				{
					"day": {
						"de": "Dritter Advent",
						"fr": "Troisième Avent",
						"en": "Third Advent"
					},
					"date": "2014-12-14",
					"hours": "10:00 - 18:00"
				},
				{
					"day": {
						"de": "Vierter Advent",
						"fr": "Quatrième Avent",
						"en": "Fourth Advent"
					},
					"date": "2014-12-21",
					"hours": "10:00 - 18:00"
				},
				{
					"day": {
						"de": "Heiliger Abend",
						"fr": "Veille de Noël",
						"en": "Christmas Eve"
					},
					"date": "2014-12-24",
					"hours": "09:00 - 20:00"
				},
				{
					"day": {
						"de": "Weihnachten",
						"fr": "Noël",
						"en": "Christmas"
					},
					"date": "2014-12-25",
					"hours": "00:00 - 00:00"
				},
				{
					"day": {
						"de": "Stephanstag",
						"fr": "Saint Etienne",
						"en": "St. Stephen's Day"
					},
					"date": "2014-12-26",
					"hours": "00:00 - 00:00"
				},
				{
					"day": {
						"de": "Silvester",
						"fr": "Saint-Sylvestre",
						"en": "New Year's Eve"
					},
					"date": "2014-12-31",
					"hours": "09:00 - 20:00"
				},
				{
					"day": {
						"de": "Neujahr",
						"fr": "Nouvel an",
						"en": "New Year's Day"
					},
					"date": "2015-01-01",
					"hours": "00:00 - 00:00"
				},
				{
					"day": {
						"de": "Berchtoldstag",
						"fr": "Saint Berchtold",
						"en": "Saint Berchtold"
					},
					"date": "2015-01-02",
					"hours": "09:00 - 20:00"
				}]
			}]
		},
		{
			"id": 312,
			"name": "HERREN GLOBUS Luzern",
			"channelName": "Magazine zum Globus AG",
			"address": "Kapellgasse 8",
			"zip": 6004,
			"city": "Luzern",
			"phone": "+41 58 576 40 50",
			"fax": "+41 58 576 40 88",
			"longitude": 8.307032,
			"latitude": 47.052568,
			"email": "tamara.ineichen@globus.ch",
			"manager": {
				"de": "Frau Tamara Ineichen",
				"fr": "Madame Tamara Ineichen",
				"en": "Mrs. Tamara Ineichen"
			},
			"images": [{
				"type": "Thumbnail",
				"url": null
			},
			{
				"type": "Detail",
				"url": "http://www.herrenglobus.ch/uploads/tx_hgws12/stores-header-luzern.jpg"
			}],
			"shopClosed": null,
			"openingTimes": [{
				"days": [{
					"weekday": 1,
					"hours": "09:00 - 18:30"
				},
				{
					"weekday": 2,
					"hours": "09:00 - 18:30"
				},
				{
					"weekday": 3,
					"hours": "09:00 - 18:30"
				},
				{
					"weekday": 4,
					"hours": "09:00 - 21:00"
				},
				{
					"weekday": 5,
					"hours": "09:00 - 18:30"
				},
				{
					"weekday": 6,
					"hours": "09:00 - 16:00"
				},
				{
					"weekday": 7,
					"hours": "00:00 - 00:00"
				}]
			}],
			"holidays": [{
				"days": [{
					"day": {
						"de": "Nationalfeiertag",
						"fr": "Fête nationale",
						"en": "National Holiday"
					},
					"date": "2014-08-01",
					"hours": "00:00 - 00:00"
				},
				{
					"day": {
						"de": "Erster Advent",
						"fr": "Premier Avent",
						"en": "First Advent"
					},
					"date": "2014-11-30",
					"hours": "00:00 - 00:00"
				},
				{
					"day": {
						"de": "Zweiter Advent",
						"fr": "Deuxième Avent",
						"en": "Second Advent"
					},
					"date": "2014-12-07",
					"hours": "00:00 - 00:00"
				},
				{
					"day": {
						"de": "Maria Empfängnis",
						"fr": "Immaculée Conception",
						"en": "Immaculate Conception"
					},
					"date": "2014-12-08",
					"hours": "09:00 - 18:30"
				},
				{
					"day": {
						"de": "Dritter Advent",
						"fr": "Troisième Avent",
						"en": "Third Advent"
					},
					"date": "2014-12-14",
					"hours": "10:00 - 18:30"
				},
				{
					"day": {
						"de": "Vierter Advent",
						"fr": "Quatrième Avent",
						"en": "Fourth Advent"
					},
					"date": "2014-12-21",
					"hours": "10:00 - 18:30"
				},
				{
					"day": {
						"de": "Heiliger Abend",
						"fr": "Veille de Noël",
						"en": "Christmas Eve"
					},
					"date": "2014-12-24",
					"hours": "09:00 - 18:30"
				},
				{
					"day": {
						"de": "Weihnachten",
						"fr": "Noël",
						"en": "Christmas"
					},
					"date": "2014-12-25",
					"hours": "00:00 - 00:00"
				},
				{
					"day": {
						"de": "Stephanstag",
						"fr": "Saint Etienne",
						"en": "St. Stephen's Day"
					},
					"date": "2014-12-26",
					"hours": "00:00 - 00:00"
				},
				{
					"day": {
						"de": "Silvester",
						"fr": "Saint-Sylvestre",
						"en": "New Year's Eve"
					},
					"date": "2014-12-31",
					"hours": "09:00 - 18:30"
				},
				{
					"day": {
						"de": "Neujahr",
						"fr": "Nouvel an",
						"en": "New Year's Day"
					},
					"date": "2015-01-01",
					"hours": "00:00 - 00:00"
				},
				{
					"day": {
						"de": "Berchtoldstag",
						"fr": "Saint Berchtold",
						"en": "Saint Berchtold"
					},
					"date": "2015-01-02",
					"hours": "09:00 - 18:30"
				}]
			}]
		},
		{
			"id": 314,
			"name": "GLOBUS HOMMES Vevey",
			"channelName": "Grands Magasins Globus SA",
			"address": "Avenue Genéral Guisan 15 ",
			"zip": 1800,
			"city": "Vevey",
			"phone": "+41 58 576 41 00",
			"fax": "+41 58 576 41 48",
			"longitude": 6.840622,
			"latitude": 46.463271,
			"email": "jane.battour@globus.ch",
			"manager": {
				"de": "Frau Jane Battour",
				"fr": "Madame Jane Battour",
				"en": "Mrs. Jane Battour"
			},
			"images": [{
				"type": "Thumbnail",
				"url": null
			},
			{
				"type": "Detail",
				"url": "http://www.herrenglobus.ch/uploads/tx_hgws12/stores-header-vevey.jpg"
			}],
			"shopClosed": null,
			"openingTimes": [{
				"days": [{
					"weekday": 1,
					"hours": "09:00 - 18:30"
				},
				{
					"weekday": 2,
					"hours": "09:00 - 18:30"
				},
				{
					"weekday": 3,
					"hours": "09:00 - 18:30"
				},
				{
					"weekday": 4,
					"hours": "09:00 - 18:30"
				},
				{
					"weekday": 5,
					"hours": "09:00 - 20:00"
				},
				{
					"weekday": 6,
					"hours": "08:00 - 17:00"
				},
				{
					"weekday": 7,
					"hours": "00:00 - 00:00"
				}]
			}],
			"holidays": [{
				"days": [{
					"day": {
						"de": "Nationalfeiertag",
						"fr": "Fête nationale",
						"en": "National Holiday"
					},
					"date": "2014-08-01",
					"hours": "00:00 - 00:00"
				},
				{
					"day": {
						"de": "Erster Advent",
						"fr": "Premier Avent",
						"en": "First Advent"
					},
					"date": "2014-11-30",
					"hours": "00:00 - 00:00"
				},
				{
					"day": {
						"de": "Zweiter Advent",
						"fr": "Deuxième Avent",
						"en": "Second Advent"
					},
					"date": "2014-12-07",
					"hours": "00:00 - 00:00"
				},
				{
					"day": {
						"de": "Maria Empfängnis",
						"fr": "Immaculée Conception",
						"en": "Immaculate Conception"
					},
					"date": "2014-12-08",
					"hours": "09:00 - 18:30"
				},
				{
					"day": {
						"de": "Dritter Advent",
						"fr": "Troisième Avent",
						"en": "Third Advent"
					},
					"date": "2014-12-14",
					"hours": "00:00 - 00:00"
				},
				{
					"day": {
						"de": "Vierter Advent",
						"fr": "Quatrième Avent",
						"en": "Fourth Advent"
					},
					"date": "2014-12-21",
					"hours": "00:00 - 00:00"
				},
				{
					"day": {
						"de": "Heiliger Abend",
						"fr": "Veille de Noël",
						"en": "Christmas Eve"
					},
					"date": "2014-12-24",
					"hours": "09:00 - 17:00"
				},
				{
					"day": {
						"de": "Weihnachten",
						"fr": "Noël",
						"en": "Christmas"
					},
					"date": "2014-12-25",
					"hours": "00:00 - 00:00"
				},
				{
					"day": {
						"de": "Stephanstag",
						"fr": "Saint Etienne",
						"en": "St. Stephen's Day"
					},
					"date": "2014-12-26",
					"hours": "09:00 - 18:30"
				},
				{
					"day": {
						"de": "Silvester",
						"fr": "Saint-Sylvestre",
						"en": "New Year's Eve"
					},
					"date": "2014-12-31",
					"hours": "09:00 - 17:00"
				},
				{
					"day": {
						"de": "Neujahr",
						"fr": "Nouvel an",
						"en": "New Year's Day"
					},
					"date": "2015-01-01",
					"hours": "00:00 - 00:00"
				},
				{
					"day": {
						"de": "Berchtoldstag",
						"fr": "Saint Berchtold",
						"en": "Saint Berchtold"
					},
					"date": "2015-01-02",
					"hours": "00:00 - 00:00"
				}]
			}]
		},
		{
			"id": 315,
			"name": "HERREN GLOBUS Biel",
			"channelName": "Magazine zum Globus AG",
			"address": "Nidaugasse 37",
			"zip": 2502,
			"city": "Biel",
			"phone": "+41 58 576 41 50",
			"fax": "+41 58 576 41 88",
			"longitude": 7.24684,
			"latitude": 47.13828,
			"email": "hanspeter.pluess@globus.ch",
			"manager": {
				"de": "Herr Hanspeter Plüss",
				"fr": "Monsieur Hanspeter Plüss",
				"en": "Mr. Hanspeter Plüss"
			},
			"images": [{
				"type": "Thumbnail",
				"url": null
			},
			{
				"type": "Detail",
				"url": "http://www.herrenglobus.ch/uploads/tx_hgws12/stores-header-biel.jpg"
			}],
			"shopClosed": null,
			"openingTimes": [{
				"days": [{
					"weekday": 1,
					"hours": "10:00 - 18:30"
				},
				{
					"weekday": 2,
					"hours": "09:00 - 18:30"
				},
				{
					"weekday": 3,
					"hours": "09:00 - 18:30"
				},
				{
					"weekday": 4,
					"hours": "09:00 - 21:00"
				},
				{
					"weekday": 5,
					"hours": "09:00 - 18:30"
				},
				{
					"weekday": 6,
					"hours": "09:00 - 17:00"
				},
				{
					"weekday": 7,
					"hours": "00:00 - 00:00"
				}]
			}],
			"holidays": [{
				"days": [{
					"day": {
						"de": "Nationalfeiertag",
						"fr": "Fête nationale",
						"en": "National Holiday"
					},
					"date": "2014-08-01",
					"hours": "00:00 - 00:00"
				},
				{
					"day": {
						"de": "Erster Advent",
						"fr": "Premier Avent",
						"en": "First Advent"
					},
					"date": "2014-11-30",
					"hours": "00:00 - 00:00"
				},
				{
					"day": {
						"de": "Zweiter Advent",
						"fr": "Deuxième Avent",
						"en": "Second Advent"
					},
					"date": "2014-12-07",
					"hours": "00:00 - 00:00"
				},
				{
					"day": {
						"de": "Maria Empfängnis",
						"fr": "Immaculée Conception",
						"en": "Immaculate Conception"
					},
					"date": "2014-12-08",
					"hours": "09:00 - 18:30"
				},
				{
					"day": {
						"de": "Dritter Advent",
						"fr": "Troisième Avent",
						"en": "Third Advent"
					},
					"date": "2014-12-14",
					"hours": "11:00 - 18:00"
				},
				{
					"day": {
						"de": "Vierter Advent",
						"fr": "Quatrième Avent",
						"en": "Fourth Advent"
					},
					"date": "2014-12-21",
					"hours": "11:00 - 18:00"
				},
				{
					"day": {
						"de": "Heiliger Abend",
						"fr": "Veille de Noël",
						"en": "Christmas Eve"
					},
					"date": "2014-12-24",
					"hours": "09:00 - 18:30"
				},
				{
					"day": {
						"de": "Weihnachten",
						"fr": "Noël",
						"en": "Christmas"
					},
					"date": "2014-12-25",
					"hours": "00:00 - 00:00"
				},
				{
					"day": {
						"de": "Stephanstag",
						"fr": "Saint Etienne",
						"en": "St. Stephen's Day"
					},
					"date": "2014-12-26",
					"hours": "00:00 - 00:00"
				},
				{
					"day": {
						"de": "Silvester",
						"fr": "Saint-Sylvestre",
						"en": "New Year's Eve"
					},
					"date": "2014-12-31",
					"hours": "09:00 - 17:00"
				},
				{
					"day": {
						"de": "Neujahr",
						"fr": "Nouvel an",
						"en": "New Year's Day"
					},
					"date": "2015-01-01",
					"hours": "00:00 - 00:00"
				},
				{
					"day": {
						"de": "Berchtoldstag",
						"fr": "Saint Berchtold",
						"en": "Saint Berchtold"
					},
					"date": "2015-01-02",
					"hours": "00:00 - 00:00"
				}]
			}]
		},
		{
			"id": 316,
			"name": "HERREN GLOBUS Winterthur",
			"channelName": "Magazine zum Globus AG",
			"address": "Marktgasse 34",
			"zip": 8400,
			"city": "Winterthur",
			"phone": "+41 58 576 42 00",
			"fax": "+41 58 576 42 48",
			"longitude": 8.725495,
			"latitude": 47.499128,
			"email": "claudia.christen@globus.ch",
			"manager": {
				"de": "Frau Claudia Christen",
				"fr": "Madame Claudia Christen",
				"en": "Mrs. Claudia Christen"
			},
			"images": [{
				"type": "Thumbnail",
				"url": null
			},
			{
				"type": "Detail",
				"url": "http://www.herrenglobus.ch/uploads/tx_hgws12/stores-header-winterthur.jpg"
			}],
			"shopClosed": null,
			"openingTimes": [{
				"days": [{
					"weekday": 1,
					"hours": "09:00 - 18:30"
				},
				{
					"weekday": 2,
					"hours": "09:00 - 18:30"
				},
				{
					"weekday": 3,
					"hours": "09:00 - 18:30"
				},
				{
					"weekday": 4,
					"hours": "09:00 - 21:00"
				},
				{
					"weekday": 5,
					"hours": "09:00 - 18:30"
				},
				{
					"weekday": 6,
					"hours": "09:00 - 17:00"
				},
				{
					"weekday": 7,
					"hours": "00:00 - 00:00"
				}]
			}],
			"holidays": [{
				"days": [{
					"day": {
						"de": "Nationalfeiertag",
						"fr": "Fête nationale",
						"en": "National Holiday"
					},
					"date": "2014-08-01",
					"hours": "00:00 - 00:00"
				},
				{
					"day": {
						"de": "Erster Advent",
						"fr": "Premier Avent",
						"en": "First Advent"
					},
					"date": "2014-11-30",
					"hours": "00:00 - 00:00"
				},
				{
					"day": {
						"de": "Zweiter Advent",
						"fr": "Deuxième Avent",
						"en": "Second Advent"
					},
					"date": "2014-12-07",
					"hours": "00:00 - 00:00"
				},
				{
					"day": {
						"de": "Maria Empfängnis",
						"fr": "Immaculée Conception",
						"en": "Immaculate Conception"
					},
					"date": "2014-12-08",
					"hours": "09:00 - 18:30"
				},
				{
					"day": {
						"de": "Dritter Advent",
						"fr": "Troisième Avent",
						"en": "Third Advent"
					},
					"date": "2014-12-14",
					"hours": "12:00 - 17:00"
				},
				{
					"day": {
						"de": "Vierter Advent",
						"fr": "Quatrième Avent",
						"en": "Fourth Advent"
					},
					"date": "2014-12-21",
					"hours": "12:00 - 17:00"
				},
				{
					"day": {
						"de": "Heiliger Abend",
						"fr": "Veille de Noël",
						"en": "Christmas Eve"
					},
					"date": "2014-12-24",
					"hours": "09:00 - 16:00"
				},
				{
					"day": {
						"de": "Weihnachten",
						"fr": "Noël",
						"en": "Christmas"
					},
					"date": "2014-12-25",
					"hours": "00:00 - 00:00"
				},
				{
					"day": {
						"de": "Stephanstag",
						"fr": "Saint Etienne",
						"en": "St. Stephen's Day"
					},
					"date": "2014-12-26",
					"hours": "00:00 - 00:00"
				},
				{
					"day": {
						"de": "Silvester",
						"fr": "Saint-Sylvestre",
						"en": "New Year's Eve"
					},
					"date": "2014-12-31",
					"hours": "09:00 - 16:00"
				},
				{
					"day": {
						"de": "Neujahr",
						"fr": "Nouvel an",
						"en": "New Year's Day"
					},
					"date": "2015-01-01",
					"hours": "00:00 - 00:00"
				},
				{
					"day": {
						"de": "Berchtoldstag",
						"fr": "Saint Berchtold",
						"en": "Saint Berchtold"
					},
					"date": "2015-01-02",
					"hours": "00:00 - 00:00"
				}]
			}]
		},
		{
			"id": 317,
			"name": "HERREN GLOBUS Schwyz",
			"channelName": "Magazine zum Globus AG",
			"address": "Mythen Center Schwyz",
			"zip": 6430,
			"city": "Schwyz",
			"phone": "+41 58 576 42 50",
			"fax": "+41 58 576 42 88",
			"longitude": 8.645353,
			"latitude": 47.015456,
			"email": "andreas.zueger@globus.ch",
			"manager": {
				"de": "Herr Andreas Züger",
				"fr": "Monsieur Andreas Züger",
				"en": "Mr. Andreas Züger"
			},
			"images": [{
				"type": "Thumbnail",
				"url": null
			},
			{
				"type": "Detail",
				"url": "http://www.herrenglobus.ch/uploads/tx_hgws12/stores-header-schwyz.jpg"
			}],
			"shopClosed": null,
			"openingTimes": [{
				"days": [{
					"weekday": 1,
					"hours": "09:00 - 20:00"
				},
				{
					"weekday": 2,
					"hours": "09:00 - 20:00"
				},
				{
					"weekday": 3,
					"hours": "09:00 - 20:00"
				},
				{
					"weekday": 4,
					"hours": "09:00 - 20:00"
				},
				{
					"weekday": 5,
					"hours": "09:00 - 21:00"
				},
				{
					"weekday": 6,
					"hours": "08:00 - 18:00"
				},
				{
					"weekday": 7,
					"hours": "00:00 - 00:00"
				}]
			}],
			"holidays": [{
				"days": [{
					"day": {
						"de": "Nationalfeiertag",
						"fr": "Fête nationale",
						"en": "National Holiday"
					},
					"date": "2014-08-01",
					"hours": "00:00 - 00:00"
				},
				{
					"day": {
						"de": "Erster Advent",
						"fr": "Premier Avent",
						"en": "First Advent"
					},
					"date": "2014-11-30",
					"hours": "00:00 - 00:00"
				},
				{
					"day": {
						"de": "Zweiter Advent",
						"fr": "Deuxième Avent",
						"en": "Second Advent"
					},
					"date": "2014-12-07",
					"hours": "00:00 - 00:00"
				},
				{
					"day": {
						"de": "Maria Empfängnis",
						"fr": "Immaculée Conception",
						"en": "Immaculate Conception"
					},
					"date": "2014-12-08",
					"hours": "09:00 - 20:00"
				},
				{
					"day": {
						"de": "Dritter Advent",
						"fr": "Troisième Avent",
						"en": "Third Advent"
					},
					"date": "2014-12-14",
					"hours": "10:00 - 17:00"
				},
				{
					"day": {
						"de": "Vierter Advent",
						"fr": "Quatrième Avent",
						"en": "Fourth Advent"
					},
					"date": "2014-12-21",
					"hours": "10:00 - 17:00"
				},
				{
					"day": {
						"de": "Heiliger Abend",
						"fr": "Veille de Noël",
						"en": "Christmas Eve"
					},
					"date": "2014-12-24",
					"hours": "07:30 - 16:00"
				},
				{
					"day": {
						"de": "Weihnachten",
						"fr": "Noël",
						"en": "Christmas"
					},
					"date": "2014-12-25",
					"hours": "00:00 - 00:00"
				},
				{
					"day": {
						"de": "Stephanstag",
						"fr": "Saint Etienne",
						"en": "St. Stephen's Day"
					},
					"date": "2014-12-26",
					"hours": "00:00 - 00:00"
				},
				{
					"day": {
						"de": "Silvester",
						"fr": "Saint-Sylvestre",
						"en": "New Year's Eve"
					},
					"date": "2014-12-31",
					"hours": "07:30 - 16:00"
				},
				{
					"day": {
						"de": "Neujahr",
						"fr": "Nouvel an",
						"en": "New Year's Day"
					},
					"date": "2015-01-01",
					"hours": "00:00 - 00:00"
				},
				{
					"day": {
						"de": "Berchtoldstag",
						"fr": "Saint Berchtold",
						"en": "Saint Berchtold"
					},
					"date": "2015-01-02",
					"hours": "09:00 - 20:00"
				}]
			}]
		},
		{
			"id": 318,
			"name": "HERREN GLOBUS Chur",
			"channelName": "Magazine zum Globus AG",
			"address": "Poststrasse 19",
			"zip": 7000,
			"city": "Chur",
			"phone": "+41 58 576 43 00",
			"fax": "+41 58 576 43 48",
			"longitude": 9.532332,
			"latitude": 46.849643,
			"email": "maria.grombone@globus.ch",
			"manager": {
				"de": "Frau Maria Grombone",
				"fr": "Madame Maria Grombone",
				"en": "Mrs. Maria Grombone"
			},
			"images": [{
				"type": "Thumbnail",
				"url": null
			},
			{
				"type": "Detail",
				"url": "http://www.herrenglobus.ch/uploads/tx_hgws12/stores-header-chur.jpg"
			}],
			"shopClosed": null,
			"openingTimes": [{
				"days": [{
					"weekday": 1,
					"hours": "09:00 - 18:30"
				},
				{
					"weekday": 2,
					"hours": "09:00 - 18:30"
				},
				{
					"weekday": 3,
					"hours": "09:00 - 18:30"
				},
				{
					"weekday": 4,
					"hours": "09:00 - 18:30"
				},
				{
					"weekday": 5,
					"hours": "09:00 - 20:00"
				},
				{
					"weekday": 6,
					"hours": "09:00 - 17:00"
				},
				{
					"weekday": 7,
					"hours": "00:00 - 00:00"
				}]
			}],
			"holidays": [{
				"days": [{
					"day": {
						"de": "Nationalfeiertag",
						"fr": "Fête nationale",
						"en": "National Holiday"
					},
					"date": "2014-08-01",
					"hours": "00:00 - 00:00"
				},
				{
					"day": {
						"de": "Erster Advent",
						"fr": "Premier Avent",
						"en": "First Advent"
					},
					"date": "2014-11-30",
					"hours": "00:00 - 00:00"
				},
				{
					"day": {
						"de": "Zweiter Advent",
						"fr": "Deuxième Avent",
						"en": "Second Advent"
					},
					"date": "2014-12-07",
					"hours": "00:00 - 00:00"
				},
				{
					"day": {
						"de": "Maria Empfängnis",
						"fr": "Immaculée Conception",
						"en": "Immaculate Conception"
					},
					"date": "2014-12-08",
					"hours": "09:00 - 18:30"
				},
				{
					"day": {
						"de": "Dritter Advent",
						"fr": "Troisième Avent",
						"en": "Third Advent"
					},
					"date": "2014-12-14",
					"hours": "12:00 - 17:00"
				},
				{
					"day": {
						"de": "Vierter Advent",
						"fr": "Quatrième Avent",
						"en": "Fourth Advent"
					},
					"date": "2014-12-21",
					"hours": "12:00 - 17:00"
				},
				{
					"day": {
						"de": "Heiliger Abend",
						"fr": "Veille de Noël",
						"en": "Christmas Eve"
					},
					"date": "2014-12-24",
					"hours": "09:00 - 17:00"
				},
				{
					"day": {
						"de": "Weihnachten",
						"fr": "Noël",
						"en": "Christmas"
					},
					"date": "2014-12-25",
					"hours": "00:00 - 00:00"
				},
				{
					"day": {
						"de": "Stephanstag",
						"fr": "Saint Etienne",
						"en": "St. Stephen's Day"
					},
					"date": "2014-12-26",
					"hours": "00:00 - 00:00"
				},
				{
					"day": {
						"de": "Silvester",
						"fr": "Saint-Sylvestre",
						"en": "New Year's Eve"
					},
					"date": "2014-12-31",
					"hours": "09:00 - 17:00"
				},
				{
					"day": {
						"de": "Neujahr",
						"fr": "Nouvel an",
						"en": "New Year's Day"
					},
					"date": "2015-01-01",
					"hours": "00:00 - 00:00"
				},
				{
					"day": {
						"de": "Berchtoldstag",
						"fr": "Saint Berchtold",
						"en": "Saint Berchtold"
					},
					"date": "2015-01-02",
					"hours": "09:00 - 18:30"
				}]
			}]
		},
		{
			"id": 319,
			"name": "HERREN GLOBUS Baden",
			"channelName": "Magazine zum Globus AG",
			"address": "Badstrasse 11",
			"zip": 5400,
			"city": "Baden",
			"phone": "+41 58 576 43 50",
			"fax": "+41 58 576 43 88",
			"longitude": 8.307906,
			"latitude": 47.474381,
			"email": "goran.cunarro@globus.ch",
			"manager": {
				"de": "Herr Goran Cunarro",
				"fr": "Monsieur Goran Cunarro",
				"en": "Mr. Goran Cunarro"
			},
			"images": [{
				"type": "Thumbnail",
				"url": null
			},
			{
				"type": "Detail",
				"url": "http://www.herrenglobus.ch/uploads/tx_hgws12/stores-header-baden.jpg"
			}],
			"shopClosed": null,
			"openingTimes": [{
				"days": [{
					"weekday": 1,
					"hours": "09:00 - 18:30"
				},
				{
					"weekday": 2,
					"hours": "09:00 - 18:30"
				},
				{
					"weekday": 3,
					"hours": "09:00 - 20:00"
				},
				{
					"weekday": 4,
					"hours": "09:00 - 18:30"
				},
				{
					"weekday": 5,
					"hours": "09:00 - 18:30"
				},
				{
					"weekday": 6,
					"hours": "08:30 - 17:00"
				},
				{
					"weekday": 7,
					"hours": "00:00 - 00:00"
				}]
			}],
			"holidays": [{
				"days": [{
					"day": {
						"de": "Nationalfeiertag",
						"fr": "Fête nationale",
						"en": "National Holiday"
					},
					"date": "2014-08-01",
					"hours": "00:00 - 00:00"
				},
				{
					"day": {
						"de": "Erster Advent",
						"fr": "Premier Avent",
						"en": "First Advent"
					},
					"date": "2014-11-30",
					"hours": "00:00 - 00:00"
				},
				{
					"day": {
						"de": "Zweiter Advent",
						"fr": "Deuxième Avent",
						"en": "Second Advent"
					},
					"date": "2014-12-07",
					"hours": "00:00 - 00:00"
				},
				{
					"day": {
						"de": "Maria Empfängnis",
						"fr": "Immaculée Conception",
						"en": "Immaculate Conception"
					},
					"date": "2014-12-08",
					"hours": "09:00 - 18:30"
				},
				{
					"day": {
						"de": "Dritter Advent",
						"fr": "Troisième Avent",
						"en": "Third Advent"
					},
					"date": "2014-12-14",
					"hours": "12:00 - 17:00"
				},
				{
					"day": {
						"de": "Vierter Advent",
						"fr": "Quatrième Avent",
						"en": "Fourth Advent"
					},
					"date": "2014-12-21",
					"hours": "12:00 - 17:00"
				},
				{
					"day": {
						"de": "Heiliger Abend",
						"fr": "Veille de Noël",
						"en": "Christmas Eve"
					},
					"date": "2014-12-24",
					"hours": "09:00 - 18:30"
				},
				{
					"day": {
						"de": "Weihnachten",
						"fr": "Noël",
						"en": "Christmas"
					},
					"date": "2014-12-25",
					"hours": "00:00 - 00:00"
				},
				{
					"day": {
						"de": "Stephanstag",
						"fr": "Saint Etienne",
						"en": "St. Stephen's Day"
					},
					"date": "2014-12-26",
					"hours": "00:00 - 00:00"
				},
				{
					"day": {
						"de": "Silvester",
						"fr": "Saint-Sylvestre",
						"en": "New Year's Eve"
					},
					"date": "2014-12-31",
					"hours": "09:00 - 17:00"
				},
				{
					"day": {
						"de": "Neujahr",
						"fr": "Nouvel an",
						"en": "New Year's Day"
					},
					"date": "2015-01-01",
					"hours": "00:00 - 00:00"
				},
				{
					"day": {
						"de": "Berchtoldstag",
						"fr": "Saint Berchtold",
						"en": "Saint Berchtold"
					},
					"date": "2015-01-02",
					"hours": "09:00 - 17:00"
				}]
			}]
		},
		{
			"id": 320,
			"name": "HERREN GLOBUS Olten",
			"channelName": "Magazine zum Globus AG",
			"address": "Kirchgasse 3",
			"zip": 4600,
			"city": "Olten",
			"phone": "+41 58 576 44 00",
			"fax": "+41 58 576 44 48",
			"longitude": 7.902125,
			"latitude": 47.349857,
			"email": "beat.pluess@globus.ch",
			"manager": {
				"de": "Herr Beat Plüss",
				"fr": "Monsieur Beat Plüss",
				"en": "Mr. Beat Plüss"
			},
			"images": [{
				"type": "Thumbnail",
				"url": null
			},
			{
				"type": "Detail",
				"url": "http://www.herrenglobus.ch/uploads/tx_hgws12/stores-header-olten.jpg"
			}],
			"shopClosed": null,
			"openingTimes": [{
				"days": [{
					"weekday": 1,
					"hours": "09:00 - 18:30"
				},
				{
					"weekday": 2,
					"hours": "09:00 - 18:30"
				},
				{
					"weekday": 3,
					"hours": "09:00 - 18:30"
				},
				{
					"weekday": 4,
					"hours": "09:00 - 20:00"
				},
				{
					"weekday": 5,
					"hours": "09:00 - 18:30"
				},
				{
					"weekday": 6,
					"hours": "09:00 - 17:00"
				},
				{
					"weekday": 7,
					"hours": "00:00 - 00:00"
				}]
			}],
			"holidays": [{
				"days": [{
					"day": {
						"de": "Nationalfeiertag",
						"fr": "Fête nationale",
						"en": "National Holiday"
					},
					"date": "2014-08-01",
					"hours": "00:00 - 00:00"
				},
				{
					"day": {
						"de": "Erster Advent",
						"fr": "Premier Avent",
						"en": "First Advent"
					},
					"date": "2014-11-30",
					"hours": "00:00 - 00:00"
				},
				{
					"day": {
						"de": "Zweiter Advent",
						"fr": "Deuxième Avent",
						"en": "Second Advent"
					},
					"date": "2014-12-07",
					"hours": "00:00 - 00:00"
				},
				{
					"day": {
						"de": "Maria Empfängnis",
						"fr": "Immaculée Conception",
						"en": "Immaculate Conception"
					},
					"date": "2014-12-08",
					"hours": "09:00 - 18:30"
				},
				{
					"day": {
						"de": "Dritter Advent",
						"fr": "Troisième Avent",
						"en": "Third Advent"
					},
					"date": "2014-12-14",
					"hours": "11:00 - 17:00"
				},
				{
					"day": {
						"de": "Vierter Advent",
						"fr": "Quatrième Avent",
						"en": "Fourth Advent"
					},
					"date": "2014-12-21",
					"hours": "11:00 - 17:00"
				},
				{
					"day": {
						"de": "Heiliger Abend",
						"fr": "Veille de Noël",
						"en": "Christmas Eve"
					},
					"date": "2014-12-24",
					"hours": "09:00 - 18:30"
				},
				{
					"day": {
						"de": "Weihnachten",
						"fr": "Noël",
						"en": "Christmas"
					},
					"date": "2014-12-25",
					"hours": "00:00 - 00:00"
				},
				{
					"day": {
						"de": "Stephanstag",
						"fr": "Saint Etienne",
						"en": "St. Stephen's Day"
					},
					"date": "2014-12-26",
					"hours": "00:00 - 00:00"
				},
				{
					"day": {
						"de": "Silvester",
						"fr": "Saint-Sylvestre",
						"en": "New Year's Eve"
					},
					"date": "2014-12-31",
					"hours": "09:00 - 18:30"
				},
				{
					"day": {
						"de": "Neujahr",
						"fr": "Nouvel an",
						"en": "New Year's Day"
					},
					"date": "2015-01-01",
					"hours": "00:00 - 00:00"
				},
				{
					"day": {
						"de": "Berchtoldstag",
						"fr": "Saint Berchtold",
						"en": "Saint Berchtold"
					},
					"date": "2015-01-02",
					"hours": "00:00 - 00:00"
				}]
			}]
		},
		{
			"id": 321,
			"name": "GLOBUS UOMO Bellinzona",
			"channelName": "Grandi Magazzini Globus SA",
			"address": "Piazza Nosetto",
			"zip": 6501,
			"city": "Bellinzona",
			"phone": "+41 58 576 44 50",
			"fax": "+41 58 576 44 88",
			"longitude": 9.022698,
			"latitude": 46.191084,
			"email": "maria.princiotto@globus.ch",
			"manager": {
				"de": "Frau Maria Princiotto",
				"fr": "Madame Maria Princiotto",
				"en": "Mrs. Maria Princiotto"
			},
			"images": [{
				"type": "Thumbnail",
				"url": null
			},
			{
				"type": "Detail",
				"url": "http://www.herrenglobus.ch/uploads/tx_hgws12/Bellinzona.jpg"
			}],
			"shopClosed": null,
			"openingTimes": [{
				"days": [{
					"weekday": 1,
					"hours": "09:00 - 18:30"
				},
				{
					"weekday": 2,
					"hours": "09:00 - 18:30"
				},
				{
					"weekday": 3,
					"hours": "09:00 - 18:30"
				},
				{
					"weekday": 4,
					"hours": "09:00 - 18:30"
				},
				{
					"weekday": 5,
					"hours": "09:00 - 18:30"
				},
				{
					"weekday": 6,
					"hours": "09:00 - 17:00"
				},
				{
					"weekday": 7,
					"hours": "00:00 - 00:00"
				}]
			}],
			"holidays": [{
				"days": [{
					"day": {
						"de": "Nationalfeiertag",
						"fr": "Fête nationale",
						"en": "National Holiday"
					},
					"date": "2014-08-01",
					"hours": "00:00 - 00:00"
				},
				{
					"day": {
						"de": "Erster Advent",
						"fr": "Premier Avent",
						"en": "First Advent"
					},
					"date": "2014-11-30",
					"hours": "00:00 - 00:00"
				},
				{
					"day": {
						"de": "Zweiter Advent",
						"fr": "Deuxième Avent",
						"en": "Second Advent"
					},
					"date": "2014-12-07",
					"hours": "10:00 - 18:00"
				},
				{
					"day": {
						"de": "Maria Empfängnis",
						"fr": "Immaculée Conception",
						"en": "Immaculate Conception"
					},
					"date": "2014-12-08",
					"hours": "09:00 - 18:30"
				},
				{
					"day": {
						"de": "Dritter Advent",
						"fr": "Troisième Avent",
						"en": "Third Advent"
					},
					"date": "2014-12-14",
					"hours": "10:00 - 18:00"
				},
				{
					"day": {
						"de": "Vierter Advent",
						"fr": "Quatrième Avent",
						"en": "Fourth Advent"
					},
					"date": "2014-12-21",
					"hours": "10:00 - 18:00"
				},
				{
					"day": {
						"de": "Heiliger Abend",
						"fr": "Veille de Noël",
						"en": "Christmas Eve"
					},
					"date": "2014-12-24",
					"hours": "09:00 - 17:00"
				},
				{
					"day": {
						"de": "Weihnachten",
						"fr": "Noël",
						"en": "Christmas"
					},
					"date": "2014-12-25",
					"hours": "00:00 - 00:00"
				},
				{
					"day": {
						"de": "Stephanstag",
						"fr": "Saint Etienne",
						"en": "St. Stephen's Day"
					},
					"date": "2014-12-26",
					"hours": "00:00 - 00:00"
				},
				{
					"day": {
						"de": "Silvester",
						"fr": "Saint-Sylvestre",
						"en": "New Year's Eve"
					},
					"date": "2014-12-31",
					"hours": "09:00 - 17:00"
				},
				{
					"day": {
						"de": "Neujahr",
						"fr": "Nouvel an",
						"en": "New Year's Day"
					},
					"date": "2015-01-01",
					"hours": "00:00 - 00:00"
				},
				{
					"day": {
						"de": "Berchtoldstag",
						"fr": "Saint Berchtold",
						"en": "Saint Berchtold"
					},
					"date": "2015-01-02",
					"hours": "09:00 - 18:30"
				}]
			}]
		},
		{
			"id": 322,
			"name": "HERREN GLOBUS Würenlos",
			"channelName": "Magazine zum Globus AG",
			"address": "Shopping Brücke A1",
			"zip": 5436,
			"city": "Würenlos",
			"phone": "+41 58 576 45 00",
			"fax": "+41 58 576 45 48",
			"longitude": 8.347469,
			"latitude": 47.438554,
			"email": "olivia.schnider@globus.ch",
			"manager": {
				"de": "Frau Olivia Schnider",
				"fr": "Madame Olivia Schnider",
				"en": "Mrs. Olivia Schnider"
			},
			"images": [{
				"type": "Thumbnail",
				"url": null
			},
			{
				"type": "Detail",
				"url": "http://www.herrenglobus.ch/uploads/tx_hgws12/stores-header-wuerenlos.jpg"
			}],
			"shopClosed": null,
			"openingTimes": [{
				"days": [{
					"weekday": 1,
					"hours": "09:00 - 21:00"
				},
				{
					"weekday": 2,
					"hours": "09:00 - 21:00"
				},
				{
					"weekday": 3,
					"hours": "09:00 - 21:00"
				},
				{
					"weekday": 4,
					"hours": "09:00 - 21:00"
				},
				{
					"weekday": 5,
					"hours": "09:00 - 21:00"
				},
				{
					"weekday": 6,
					"hours": "09:00 - 21:00"
				},
				{
					"weekday": 7,
					"hours": "09:00 - 21:00"
				}]
			}],
			"holidays": [{
				"days": [{
					"day": {
						"de": "Nationalfeiertag",
						"fr": "Fête nationale",
						"en": "National Holiday"
					},
					"date": "2014-08-01",
					"hours": "09:00 - 21:00"
				},
				{
					"day": {
						"de": "Erster Advent",
						"fr": "Premier Avent",
						"en": "First Advent"
					},
					"date": "2014-11-30",
					"hours": "09:00 - 21:00"
				},
				{
					"day": {
						"de": "Zweiter Advent",
						"fr": "Deuxième Avent",
						"en": "Second Advent"
					},
					"date": "2014-12-07",
					"hours": "09:00 - 21:00"
				},
				{
					"day": {
						"de": "Maria Empfängnis",
						"fr": "Immaculée Conception",
						"en": "Immaculate Conception"
					},
					"date": "2014-12-08",
					"hours": "09:00 - 21:00"
				},
				{
					"day": {
						"de": "Dritter Advent",
						"fr": "Troisième Avent",
						"en": "Third Advent"
					},
					"date": "2014-12-14",
					"hours": "09:00 - 21:00"
				},
				{
					"day": {
						"de": "Vierter Advent",
						"fr": "Quatrième Avent",
						"en": "Fourth Advent"
					},
					"date": "2014-12-21",
					"hours": "09:00 - 21:00"
				},
				{
					"day": {
						"de": "Heiliger Abend",
						"fr": "Veille de Noël",
						"en": "Christmas Eve"
					},
					"date": "2014-12-24",
					"hours": "09:00 - 18:00"
				},
				{
					"day": {
						"de": "Weihnachten",
						"fr": "Noël",
						"en": "Christmas"
					},
					"date": "2014-12-25",
					"hours": "09:00 - 21:00"
				},
				{
					"day": {
						"de": "Stephanstag",
						"fr": "Saint Etienne",
						"en": "St. Stephen's Day"
					},
					"date": "2014-12-26",
					"hours": "09:00 - 21:00"
				},
				{
					"day": {
						"de": "Silvester",
						"fr": "Saint-Sylvestre",
						"en": "New Year's Eve"
					},
					"date": "2014-12-31",
					"hours": "09:00 - 18:00"
				},
				{
					"day": {
						"de": "Neujahr",
						"fr": "Nouvel an",
						"en": "New Year's Day"
					},
					"date": "2015-01-01",
					"hours": "09:00 - 21:00"
				},
				{
					"day": {
						"de": "Berchtoldstag",
						"fr": "Saint Berchtold",
						"en": "Saint Berchtold"
					},
					"date": "2015-01-02",
					"hours": "09:00 - 21:00"
				}]
			}]
		},
		{
			"id": 323,
			"name": "HERREN GLOBUS Basel-Stücki",
			"channelName": "Magazine zum Globus AG",
			"address": "Hochbergerstrasse 70",
			"zip": 4057,
			"city": "Basel",
			"phone": "+41 58 576 47 50",
			"fax": "+41 58 576 47 88",
			"longitude": 7.595357,
			"latitude": 47.57928,
			"email": "yves.clerc@globus.ch",
			"manager": {
				"de": "Herr Yves Clerc",
				"fr": "Monsieur Yves Clerc",
				"en": "Mr. Yves Clerc"
			},
			"images": [{
				"type": "Thumbnail",
				"url": null
			},
			{
				"type": "Detail",
				"url": "http://www.herrenglobus.ch/uploads/tx_hgws12/stores-header-baselstuecki.jpg"
			}],
			"shopClosed": null,
			"openingTimes": [{
				"days": [{
					"weekday": 1,
					"hours": "09:00 - 20:00"
				},
				{
					"weekday": 2,
					"hours": "09:00 - 20:00"
				},
				{
					"weekday": 3,
					"hours": "09:00 - 20:00"
				},
				{
					"weekday": 4,
					"hours": "09:00 - 20:00"
				},
				{
					"weekday": 5,
					"hours": "09:00 - 20:00"
				},
				{
					"weekday": 6,
					"hours": "09:00 - 18:00"
				},
				{
					"weekday": 7,
					"hours": "00:00 - 00:00"
				}]
			}],
			"holidays": [{
				"days": [{
					"day": {
						"de": "Nationalfeiertag",
						"fr": "Fête nationale",
						"en": "National Holiday"
					},
					"date": "2014-08-01",
					"hours": "00:00 - 00:00"
				},
				{
					"day": {
						"de": "Erster Advent",
						"fr": "Premier Avent",
						"en": "First Advent"
					},
					"date": "2014-11-30",
					"hours": "00:00 - 00:00"
				},
				{
					"day": {
						"de": "Zweiter Advent",
						"fr": "Deuxième Avent",
						"en": "Second Advent"
					},
					"date": "2014-12-07",
					"hours": "00:00 - 00:00"
				},
				{
					"day": {
						"de": "Maria Empfängnis",
						"fr": "Immaculée Conception",
						"en": "Immaculate Conception"
					},
					"date": "2014-12-08",
					"hours": "09:00 - 20:00"
				},
				{
					"day": {
						"de": "Dritter Advent",
						"fr": "Troisième Avent",
						"en": "Third Advent"
					},
					"date": "2014-12-14",
					"hours": "13:00 - 18:00"
				},
				{
					"day": {
						"de": "Vierter Advent",
						"fr": "Quatrième Avent",
						"en": "Fourth Advent"
					},
					"date": "2014-12-21",
					"hours": "13:00 - 18:00"
				},
				{
					"day": {
						"de": "Heiliger Abend",
						"fr": "Veille de Noël",
						"en": "Christmas Eve"
					},
					"date": "2014-12-24",
					"hours": "09:00 - 16:00"
				},
				{
					"day": {
						"de": "Weihnachten",
						"fr": "Noël",
						"en": "Christmas"
					},
					"date": "2014-12-25",
					"hours": "00:00 - 00:00"
				},
				{
					"day": {
						"de": "Stephanstag",
						"fr": "Saint Etienne",
						"en": "St. Stephen's Day"
					},
					"date": "2014-12-26",
					"hours": "00:00 - 00:00"
				},
				{
					"day": {
						"de": "Silvester",
						"fr": "Saint-Sylvestre",
						"en": "New Year's Eve"
					},
					"date": "2014-12-31",
					"hours": "09:00 - 17:00"
				},
				{
					"day": {
						"de": "Neujahr",
						"fr": "Nouvel an",
						"en": "New Year's Day"
					},
					"date": "2015-01-01",
					"hours": "00:00 - 00:00"
				},
				{
					"day": {
						"de": "Berchtoldstag",
						"fr": "Saint Berchtold",
						"en": "Saint Berchtold"
					},
					"date": "2015-01-02",
					"hours": "09:00 - 20:00"
				}]
			}]
		},
		{
			"id": 324,
			"name": "HERREN GLOBUS Airport Center",
			"channelName": "Magazine zum Globus AG",
			"address": "Airport-Shopping",
			"zip": 8060,
			"city": "Zürich Flughafen",
			"phone": "+41 58 576 48 00",
			"fax": "+41 58 576 48 48",
			"longitude": 8.570555,
			"latitude": 47.453871,
			"email": "bernhard.wiehl@globus.ch",
			"manager": {
				"de": "Herr Bernhard Wiehl",
				"fr": "Monsieur Bernhard Wiehl",
				"en": "Mr. Bernhard Wiehl"
			},
			"images": [{
				"type": "Thumbnail",
				"url": null
			},
			{
				"type": "Detail",
				"url": "http://www.herrenglobus.ch/uploads/tx_hgws12/stores-header-zuerichairpor.jpg"
			}],
			"shopClosed": null,
			"openingTimes": [{
				"days": [{
					"weekday": 1,
					"hours": "08:00 - 21:00"
				},
				{
					"weekday": 2,
					"hours": "08:00 - 21:00"
				},
				{
					"weekday": 3,
					"hours": "08:00 - 21:00"
				},
				{
					"weekday": 4,
					"hours": "08:00 - 21:00"
				},
				{
					"weekday": 5,
					"hours": "08:00 - 21:00"
				},
				{
					"weekday": 6,
					"hours": "08:00 - 21:00"
				},
				{
					"weekday": 7,
					"hours": "08:00 - 21:00"
				}]
			}],
			"holidays": [{
				"days": [{
					"day": {
						"de": "Nationalfeiertag",
						"fr": "Fête nationale",
						"en": "National Holiday"
					},
					"date": "2014-08-01",
					"hours": "08:00 - 21:00"
				},
				{
					"day": {
						"de": "Erster Advent",
						"fr": "Premier Avent",
						"en": "First Advent"
					},
					"date": "2014-11-30",
					"hours": "08:00 - 21:00"
				},
				{
					"day": {
						"de": "Zweiter Advent",
						"fr": "Deuxième Avent",
						"en": "Second Advent"
					},
					"date": "2014-12-07",
					"hours": "08:00 - 21:00"
				},
				{
					"day": {
						"de": "Maria Empfängnis",
						"fr": "Immaculée Conception",
						"en": "Immaculate Conception"
					},
					"date": "2014-12-08",
					"hours": "08:00 - 21:00"
				},
				{
					"day": {
						"de": "Dritter Advent",
						"fr": "Troisième Avent",
						"en": "Third Advent"
					},
					"date": "2014-12-14",
					"hours": "08:00 - 21:00"
				},
				{
					"day": {
						"de": "Vierter Advent",
						"fr": "Quatrième Avent",
						"en": "Fourth Advent"
					},
					"date": "2014-12-21",
					"hours": "08:00 - 21:00"
				},
				{
					"day": {
						"de": "Heiliger Abend",
						"fr": "Veille de Noël",
						"en": "Christmas Eve"
					},
					"date": "2014-12-24",
					"hours": "08:00 - 18:30"
				},
				{
					"day": {
						"de": "Weihnachten",
						"fr": "Noël",
						"en": "Christmas"
					},
					"date": "2014-12-25",
					"hours": "08:00 - 18:30"
				},
				{
					"day": {
						"de": "Stephanstag",
						"fr": "Saint Etienne",
						"en": "St. Stephen's Day"
					},
					"date": "2014-12-26",
					"hours": "08:00 - 21:00"
				},
				{
					"day": {
						"de": "Silvester",
						"fr": "Saint-Sylvestre",
						"en": "New Year's Eve"
					},
					"date": "2014-12-31",
					"hours": "08:00 - 18:30"
				},
				{
					"day": {
						"de": "Neujahr",
						"fr": "Nouvel an",
						"en": "New Year's Day"
					},
					"date": "2015-01-01",
					"hours": "08:00 - 18:30"
				},
				{
					"day": {
						"de": "Berchtoldstag",
						"fr": "Saint Berchtold",
						"en": "Saint Berchtold"
					},
					"date": "2015-01-02",
					"hours": "08:00 - 21:00"
				}]
			}]
		},
		{
			"id": 325,
			"name": "GLOBUS UOMO Lugano",
			"channelName": "Grandi Magazzini Globus SA",
			"address": "Via Pietro Peri 8",
			"zip": 6900,
			"city": "Lugano",
			"phone": "+41 58 576 46 50",
			"fax": null,
			"longitude": 8.95084,
			"latitude": 46.00558,
			"email": "andreas.fuchs@globus.ch",
			"manager": {
				"de": "Herr Andreas Fuchs",
				"fr": "Monsieur Andreas Fuchs",
				"en": "Mr. Andreas Fuchs"
			},
			"images": [{
				"type": "Thumbnail",
				"url": null
			},
			{
				"type": "Detail",
				"url": "http://www.herrenglobus.ch/uploads/tx_hgws12/Lugano-1.jpg"
			}],
			"shopClosed": null,
			"openingTimes": [{
				"days": [{
					"weekday": 1,
					"hours": "09:00 - 18:30"
				},
				{
					"weekday": 2,
					"hours": "09:00 - 18:30"
				},
				{
					"weekday": 3,
					"hours": "09:00 - 18:30"
				},
				{
					"weekday": 4,
					"hours": "09:00 - 21:00"
				},
				{
					"weekday": 5,
					"hours": "09:00 - 18:30"
				},
				{
					"weekday": 6,
					"hours": "09:00 - 18:00"
				},
				{
					"weekday": 7,
					"hours": "00:00 - 00:00"
				}]
			}],
			"holidays": [{
				"days": [{
					"day": {
						"de": "Nationalfeiertag",
						"fr": "Fête nationale",
						"en": "National Holiday"
					},
					"date": "2014-08-01",
					"hours": "00:00 - 00:00"
				},
				{
					"day": {
						"de": "Erster Advent",
						"fr": "Premier Avent",
						"en": "First Advent"
					},
					"date": "2014-11-30",
					"hours": "00:00 - 00:00"
				},
				{
					"day": {
						"de": "Zweiter Advent",
						"fr": "Deuxième Avent",
						"en": "Second Advent"
					},
					"date": "2014-12-07",
					"hours": "10:00 - 18:00"
				},
				{
					"day": {
						"de": "Maria Empfängnis",
						"fr": "Immaculée Conception",
						"en": "Immaculate Conception"
					},
					"date": "2014-12-08",
					"hours": "09:00 - 18:30"
				},
				{
					"day": {
						"de": "Dritter Advent",
						"fr": "Troisième Avent",
						"en": "Third Advent"
					},
					"date": "2014-12-14",
					"hours": "10:00 - 18:00"
				},
				{
					"day": {
						"de": "Vierter Advent",
						"fr": "Quatrième Avent",
						"en": "Fourth Advent"
					},
					"date": "2014-12-21",
					"hours": "10:00 - 18:00"
				},
				{
					"day": {
						"de": "Heiliger Abend",
						"fr": "Veille de Noël",
						"en": "Christmas Eve"
					},
					"date": "2014-12-24",
					"hours": "09:00 - 17:00"
				},
				{
					"day": {
						"de": "Weihnachten",
						"fr": "Noël",
						"en": "Christmas"
					},
					"date": "2014-12-25",
					"hours": "00:00 - 00:00"
				},
				{
					"day": {
						"de": "Stephanstag",
						"fr": "Saint Etienne",
						"en": "St. Stephen's Day"
					},
					"date": "2014-12-26",
					"hours": "00:00 - 00:00"
				},
				{
					"day": {
						"de": "Silvester",
						"fr": "Saint-Sylvestre",
						"en": "New Year's Eve"
					},
					"date": "2014-12-31",
					"hours": "09:00 - 17:00"
				},
				{
					"day": {
						"de": "Neujahr",
						"fr": "Nouvel an",
						"en": "New Year's Day"
					},
					"date": "2015-01-01",
					"hours": "00:00 - 00:00"
				},
				{
					"day": {
						"de": "Berchtoldstag",
						"fr": "Saint Berchtold",
						"en": "Saint Berchtold"
					},
					"date": "2015-01-02",
					"hours": "09:00 - 18:30"
				}]
			}]
		},
		{
			"id": 326,
			"name": "GLOBUS HOMMES Lausanne",
			"channelName": "Grands Magasins Globus SA",
			"address": "Rue de Bourg 15",
			"zip": 1003,
			"city": "Lausanne",
			"phone": "+41 58 576 48 50",
			"fax": null,
			"longitude": 6.63463,
			"latitude": 46.52021,
			"email": "frank.zimmermann@globus.ch",
			"manager": {
				"de": "Herr Frank Zimmermann",
				"fr": "Monsieur Frank Zimmermann",
				"en": "Mr. Frank Zimmermann"
			},
			"images": [{
				"type": "Thumbnail",
				"url": null
			},
			{
				"type": "Detail",
				"url": "http://www.herrenglobus.ch/uploads/tx_hgws12/Lausanne-aussen.jpg"
			}],
			"shopClosed": null,
			"openingTimes": [{
				"days": [{
					"weekday": 1,
					"hours": "09:00 - 18:30"
				},
				{
					"weekday": 2,
					"hours": "09:00 - 18:30"
				},
				{
					"weekday": 3,
					"hours": "09:00 - 18:30"
				},
				{
					"weekday": 4,
					"hours": "09:00 - 18:30"
				},
				{
					"weekday": 5,
					"hours": "09:00 - 18:30"
				},
				{
					"weekday": 6,
					"hours": "09:00 - 18:00"
				},
				{
					"weekday": 7,
					"hours": "00:00 - 00:00"
				}]
			}],
			"holidays": [{
				"days": [{
					"day": {
						"de": "Nationalfeiertag",
						"fr": "Fête nationale",
						"en": "National Holiday"
					},
					"date": "2014-08-01",
					"hours": "00:00 - 00:00"
				},
				{
					"day": {
						"de": "Erster Advent",
						"fr": "Premier Avent",
						"en": "First Advent"
					},
					"date": "2014-11-30",
					"hours": "00:00 - 00:00"
				},
				{
					"day": {
						"de": "Zweiter Advent",
						"fr": "Deuxième Avent",
						"en": "Second Advent"
					},
					"date": "2014-12-07",
					"hours": "00:00 - 00:00"
				},
				{
					"day": {
						"de": "Maria Empfängnis",
						"fr": "Immaculée Conception",
						"en": "Immaculate Conception"
					},
					"date": "2014-12-08",
					"hours": "09:00 - 18:30"
				},
				{
					"day": {
						"de": "Dritter Advent",
						"fr": "Troisième Avent",
						"en": "Third Advent"
					},
					"date": "2014-12-14",
					"hours": "00:00 - 00:00"
				},
				{
					"day": {
						"de": "Vierter Advent",
						"fr": "Quatrième Avent",
						"en": "Fourth Advent"
					},
					"date": "2014-12-21",
					"hours": "00:00 - 00:00"
				},
				{
					"day": {
						"de": "Heiliger Abend",
						"fr": "Veille de Noël",
						"en": "Christmas Eve"
					},
					"date": "2014-12-24",
					"hours": "09:00 - 17:00"
				},
				{
					"day": {
						"de": "Weihnachten",
						"fr": "Noël",
						"en": "Christmas"
					},
					"date": "2014-12-25",
					"hours": "00:00 - 00:00"
				},
				{
					"day": {
						"de": "Stephanstag",
						"fr": "Saint Etienne",
						"en": "St. Stephen's Day"
					},
					"date": "2014-12-26",
					"hours": "09:00 - 18:30"
				},
				{
					"day": {
						"de": "Silvester",
						"fr": "Saint-Sylvestre",
						"en": "New Year's Eve"
					},
					"date": "2014-12-31",
					"hours": "09:00 - 17:00"
				},
				{
					"day": {
						"de": "Neujahr",
						"fr": "Nouvel an",
						"en": "New Year's Day"
					},
					"date": "2015-01-01",
					"hours": "00:00 - 00:00"
				},
				{
					"day": {
						"de": "Berchtoldstag",
						"fr": "Saint Berchtold",
						"en": "Saint Berchtold"
					},
					"date": "2015-01-02",
					"hours": "00:00 - 00:00"
				}]
			}]
		},
		{
			"id": 330,
			"name": "STRELLSON STORE Westside",
			"channelName": "Magazine zum Globus AG",
			"address": "Gilberte-de-Courgenay-Platz 4",
			"zip": 3027,
			"city": "Bern - Westside",
			"phone": "+41 58 576 47 00",
			"fax": "+41 58 576 47 48",
			"longitude": 7.374287,
			"latitude": 46.944426,
			"email": "martin.keller@globus.ch",
			"manager": {
				"de": "Herr Martin Keller",
				"fr": "Monsieur Martin Keller",
				"en": "Mr. Martin Keller"
			},
			"images": [{
				"type": "Thumbnail",
				"url": null
			},
			{
				"type": "Detail",
				"url": "http://www.herrenglobus.ch/uploads/tx_hgws12/stores-header-strellson.jpg"
			}],
			"shopClosed": null,
			"openingTimes": [{
				"days": [{
					"weekday": 1,
					"hours": "09:00 - 20:00"
				},
				{
					"weekday": 2,
					"hours": "09:00 - 20:00"
				},
				{
					"weekday": 3,
					"hours": "09:00 - 20:00"
				},
				{
					"weekday": 4,
					"hours": "09:00 - 20:00"
				},
				{
					"weekday": 5,
					"hours": "09:00 - 22:00"
				},
				{
					"weekday": 6,
					"hours": "08:00 - 17:00"
				},
				{
					"weekday": 7,
					"hours": "00:00 - 00:00"
				}]
			}],
			"holidays": [{
				"days": [{
					"day": {
						"de": "Nationalfeiertag",
						"fr": "Fête nationale",
						"en": "National Holiday"
					},
					"date": "2014-08-01",
					"hours": "00:00 - 00:00"
				},
				{
					"day": {
						"de": "Zibelemärit",
						"fr": "Foire aux oignons",
						"en": "Onion Market"
					},
					"date": "2014-11-24",
					"hours": "09:00 - 20:00"
				},
				{
					"day": {
						"de": "Erster Advent",
						"fr": "Premier Avent",
						"en": "First Advent"
					},
					"date": "2014-11-30",
					"hours": "00:00 - 00:00"
				},
				{
					"day": {
						"de": "Zweiter Advent",
						"fr": "Deuxième Avent",
						"en": "Second Advent"
					},
					"date": "2014-12-07",
					"hours": "00:00 - 00:00"
				},
				{
					"day": {
						"de": "Maria Empfängnis",
						"fr": "Immaculée Conception",
						"en": "Immaculate Conception"
					},
					"date": "2014-12-08",
					"hours": "09:00 - 20:00"
				},
				{
					"day": {
						"de": "Dritter Advent",
						"fr": "Troisième Avent",
						"en": "Third Advent"
					},
					"date": "2014-12-14",
					"hours": "10:00 - 18:00"
				},
				{
					"day": {
						"de": "Vierter Advent",
						"fr": "Quatrième Avent",
						"en": "Fourth Advent"
					},
					"date": "2014-12-21",
					"hours": "10:00 - 18:00"
				},
				{
					"day": {
						"de": "Heiliger Abend",
						"fr": "Veille de Noël",
						"en": "Christmas Eve"
					},
					"date": "2014-12-24",
					"hours": "08:00 - 17:00"
				},
				{
					"day": {
						"de": "Weihnachten",
						"fr": "Noël",
						"en": "Christmas"
					},
					"date": "2014-12-25",
					"hours": "00:00 - 00:00"
				},
				{
					"day": {
						"de": "Stephanstag",
						"fr": "Saint Etienne",
						"en": "St. Stephen's Day"
					},
					"date": "2014-12-26",
					"hours": "00:00 - 00:00"
				},
				{
					"day": {
						"de": "Silvester",
						"fr": "Saint-Sylvestre",
						"en": "New Year's Eve"
					},
					"date": "2014-12-31",
					"hours": "08:00 - 17:00"
				},
				{
					"day": {
						"de": "Neujahr",
						"fr": "Nouvel an",
						"en": "New Year's Day"
					},
					"date": "2015-01-01",
					"hours": "00:00 - 00:00"
				},
				{
					"day": {
						"de": "Berchtoldstag",
						"fr": "Saint Berchtold",
						"en": "Saint Berchtold"
					},
					"date": "2015-01-02",
					"hours": "00:00 - 00:00"
				}]
			}]
		},
		{
			"id": 331,
			"name": "STRELLSON STORE Marin Centre",
			"channelName": "Grands Magasins Globus SA",
			"address": "Rue de la Fleur-de-Lys 26",
			"zip": 2074,
			"city": "Marin-Epagnier",
			"phone": "+41 58 578 73 73",
			"fax": "+41 58 578 73 88",
			"longitude": 7.005458,
			"latitude": 47.010749,
			"email": "patrick.capt@globus.ch",
			"manager": {
				"de": "Herr Patrick Capt",
				"fr": "Monsieur Patrick Capt",
				"en": "Mr. Patrick Capt"
			},
			"images": [{
				"type": "Thumbnail",
				"url": null
			},
			{
				"type": "Detail",
				"url": "http://www.herrenglobus.ch/uploads/tx_hgws12/stores-header-strellson.jpg"
			}],
			"shopClosed": "X",
			"openingTimes": [{
				"days": [{
					"weekday": 1,
					"hours": "00:00 - 00:00"
				},
				{
					"weekday": 2,
					"hours": "00:00 - 00:00"
				},
				{
					"weekday": 3,
					"hours": "00:00 - 00:00"
				},
				{
					"weekday": 4,
					"hours": "00:00 - 00:00"
				},
				{
					"weekday": 5,
					"hours": "00:00 - 00:00"
				},
				{
					"weekday": 6,
					"hours": "00:00 - 00:00"
				},
				{
					"weekday": 7,
					"hours": "00:00 - 00:00"
				}]
			}],
			"holidays": [{
				"days": [{
					"day": {
						"de": "Neueröffnung",
						"fr": "Jour de l'inauguration",
						"en": "Opening day"
					},
					"date": "2014-09-03",
					"hours": "08:00 - 20:00"
				}]
			}]
		}],
		"totalStores": 42
	}
}